,zip_codes,Estimate!!Total,Movers Total,%Movers,lat,lng,city,state_id,state_name,zcta,parent_zcta,population,density,county_fips,county_name,county_weights,county_names_all,county_fips_all,imprecise,military,timezone
0,20006,2756,2041,0.7405660377358491,38.898590000000006,-77.04134,Washington,DC,District of Columbia,True,,2756,3669.1,11001,District of Columbia,{'11001':100},District of Columbia,11001,False,False,America/New_York
1,32508,5354,3597,0.6718341426970489,30.354779999999998,-87.30278,Pensacola,FL,Florida,True,,5381,278.4,12033,Escambia,{'12033':100},Escambia,12033,False,False,America/Chicago
2,23604,6722,4147,0.6169294852722405,37.13163,-76.58874,Fort Eustis,VA,Virginia,True,,6831,182.3,51700,Newport News,{'51700':100},Newport News,51700,False,False,America/New_York
3,40121,8898,5284,0.5938413126545291,37.92933,-85.94141,Fort Knox,KY,Kentucky,True,,8965,115.4,21093,Hardin,"{'21093':73.5,'21163':26.5}",Hardin|Meade,21093|21163,False,False,America/New_York
4,55415,4380,2547,0.5815068493150685,44.974779999999996,-93.25765,Minneapolis,MN,Minnesota,True,,4480,2350.2,27053,Hennepin,{'27053':100},Hennepin,27053,False,False,America/Chicago
5,91210,681,394,0.57856093979442,34.14454,-118.2565,Glendale,CA,California,True,,689,2877.0,6037,Los Angeles,{'06037':100},Los Angeles,06037,False,False,America/Los_Angeles
6,63102,2188,1264,0.5776965265082267,38.6352,-90.18644,Saint Louis,MO,Missouri,True,,2201,626.9,29510,St. Louis,{'29510':100},St. Louis,29510,False,False,America/Chicago
7,28547,25137,14230,0.5660977841428969,34.67125,-77.37368000000001,Camp Lejeune,NC,North Carolina,True,,25420,325.5,37133,Onslow,{'37133':100},Onslow,37133,False,False,America/New_York
8,78236,6808,3839,0.5638954171562868,29.378109999999996,-98.64431,Jbsa Lackland,TX,Texas,True,,6882,423.3,48029,Bexar,{'48029':100},Bexar,48029,False,False,America/Chicago
9,74103,2134,1193,0.5590440487347704,36.15563,-95.9945,Tulsa,OK,Oklahoma,True,,2134,1821.7,40143,Tulsa,{'40143':100},Tulsa,40143,False,False,America/Chicago
10,76311,8709,4809,0.5521873923527385,33.96947,-98.50898000000001,Sheppard Afb,TX,Texas,True,,8784,1757.8,48485,Wichita,{'48485':100},Wichita,48485,False,False,America/Chicago
11,28543,4850,2626,0.5414432989690722,34.73362,-77.37881,Tarawa Terrace,NC,North Carolina,True,,5153,887.4,37133,Onslow,{'37133':100},Onslow,37133,False,False,America/New_York
12,94704,29158,15557,0.5335413951574182,37.86657,-122.25798999999999,Berkeley,CA,California,True,,29190,9255.7,6001,Alameda,{'06001':100},Alameda,06001,False,False,America/Los_Angeles
13,30905,7916,4207,0.531455280444669,33.41474,-82.14267,Augusta,GA,Georgia,True,,7991,247.2,13245,Richmond,{'13245':100},Richmond,13245,False,False,America/New_York
14,46204,7985,4237,0.5306199123356293,39.77152,-86.15688,Indianapolis,IN,Indiana,True,,8008,1760.8,18097,Marion,{'18097':100},Marion,18097,False,False,America/Indiana/Indianapolis
15,78705,33841,17395,0.5140214532667474,30.29437,-97.73855,Austin,TX,Texas,True,,33948,5511.2,48453,Travis,{'48453':100},Travis,48453,False,False,America/Chicago
16,24011,443,227,0.5124153498871332,37.27057,-79.94122,Roanoke,VA,Virginia,True,,443,492.5,51770,Roanoke,{'51770':100},Roanoke,51770,False,False,America/New_York
17,2163,2401,1230,0.51228654727197,42.36636,-71.12076,Boston,MA,Massachusetts,True,,2401,10057.3,25025,Suffolk,{'25025':100},Suffolk,25025,False,False,America/New_York
18,31315,7264,3693,0.508397577092511,31.893829999999998,-81.59014,Fort Stewart,GA,Georgia,True,,7640,242.0,13179,Liberty,{'13179':100},Liberty,13179,False,False,America/New_York
19,85613,5332,2706,0.5075018754688673,31.5669,-110.3851,Fort Huachuca,AZ,Arizona,True,,5480,46.2,4003,Cochise,{'04003':100},Cochise,04003,False,False,America/Phoenix
20,78234,5346,2665,0.4985035540591096,29.460390000000004,-98.43924,Jbsa Ft Sam Houston,TX,Texas,True,,5430,605.0,48029,Bexar,{'48029':100},Bexar,48029,False,False,America/Chicago
21,32403,3285,1626,0.4949771689497717,30.053379999999997,-85.5568,Panama City,FL,Florida,True,,3374,26.2,12005,Bay,{'12005':100},Bay,12005,False,False,America/Chicago
22,45433,2734,1352,0.49451353328456477,39.81256,-84.05835,Dayton,OH,Ohio,True,,2734,71.9,39057,Greene,"{'39057':90.35,'39113':9.65}",Greene|Montgomery,39057|39113,False,False,America/New_York
23,78215,2834,1399,0.4936485532815808,29.44125,-98.48048,San Antonio,TX,Texas,True,,2974,395.5,48029,Bexar,{'48029':100},Bexar,48029,False,False,America/Chicago
24,90024,50059,24703,0.49347769631834437,34.06568,-118.43506000000001,Los Angeles,CA,California,True,,50288,6239.3,6037,Los Angeles,{'06037':100},Los Angeles,06037,False,False,America/Los_Angeles
25,55402,408,201,0.49264705882352944,44.97605,-93.2716,Minneapolis,MN,Minnesota,True,,408,799.3,27053,Hennepin,{'27053':100},Hennepin,27053,False,False,America/Chicago
26,77840,59398,29243,0.49232297383750295,30.609070000000003,-96.32603,College Station,TX,Texas,True,,59971,1936.0,48041,Brazos,{'48041':100},Brazos,48041,False,False,America/Chicago
27,65305,3901,1917,0.49141245834401437,38.72939,-93.55447,Whiteman Air Force Base,MO,Missouri,True,,4029,171.4,29101,Johnson,{'29101':100},Johnson,29101,False,False,America/Chicago
28,92278,4712,2303,0.4887521222410866,34.229890000000005,-116.05507,Twentynine Palms,CA,California,True,,4737,1858.4,6071,San Bernardino,{'06071':100},San Bernardino,06071,False,False,America/Los_Angeles
29,99506,6672,3255,0.48785971223021585,61.2631,-149.80534,Jber,AK,Alaska,True,,7029,168.9,2020,Anchorage,{'02020':100},Anchorage,02020,False,False,America/Anchorage
30,47901,3597,1751,0.4867945510147345,40.41785,-86.88995,Lafayette,IN,Indiana,True,,3702,2289.0,18157,Tippecanoe,{'18157':100},Tippecanoe,18157,False,False,America/Indiana/Indianapolis
31,88330,3795,1829,0.4819499341238472,32.836529999999996,-106.0774,Holloman Air Force Base,NM,New Mexico,True,,3879,857.5,35035,Otero,{'35035':100},Otero,35035,False,False,America/Denver
32,92310,8757,4092,0.4672833162041795,35.26145,-116.69033999999999,Fort Irwin,CA,California,True,,9086,1141.0,6071,San Bernardino,{'06071':100},San Bernardino,06071,False,False,America/Los_Angeles
33,2215,25517,11816,0.46306383979307914,42.347770000000004,-71.10282,Boston,MA,Massachusetts,True,,25619,13185.2,25025,Suffolk,"{'25021':0,'25025':100}",Suffolk|Norfolk,25025|25021,False,False,America/New_York
34,32227,3063,1415,0.46196539340515835,30.39003,-81.40722,Jacksonville,FL,Florida,True,,3087,750.6,12031,Duval,{'12031':100},Duval,12031,False,False,America/New_York
35,29201,21163,9749,0.4606624769645135,33.98339,-81.02809,Columbia,SC,South Carolina,True,,21242,696.1,45079,Richland,{'45079':100},Richland,45079,False,False,America/New_York
36,53703,33414,15326,0.45867001855509665,43.079840000000004,-89.37709,Madison,WI,Wisconsin,True,,33467,5931.4,55025,Dane,{'55025':100},Dane,55025,False,False,America/Chicago
37,48104,42956,19557,0.4552798212124034,42.26425,-83.71703000000001,Ann Arbor,MI,Michigan,True,,43233,1902.0,26161,Washtenaw,{'26161':100},Washtenaw,26161,False,False,America/Detroit
38,48226,6925,3122,0.4508303249097473,42.33167,-83.05011999999999,Detroit,MI,Michigan,True,,6935,1694.3,26163,Wayne,{'26163':100},Wayne,26163,False,False,America/Detroit
39,76155,5345,2382,0.4456501403180543,32.82398,-97.04866,Fort Worth,TX,Texas,True,,5494,347.1,48439,Tarrant,{'48439':100},Tarrant,48439,False,False,America/Chicago
40,65201,44659,19843,0.4443225329720773,38.89825,-92.24363000000001,Columbia,MO,Missouri,True,,45159,177.9,29019,Boone,"{'29019':99.84,'29027':0.16}",Boone|Callaway,29019|29027,False,False,America/Chicago
41,76544,25085,11051,0.4405421566673311,31.143109999999997,-97.76164,Fort Hood,TX,Texas,True,,25561,377.0,48027,Bell,"{'48027':51.06,'48099':48.94}",Bell|Coryell,48027|48099,False,False,America/Chicago
42,13603,9180,3990,0.434640522875817,44.03703,-75.79779,Watertown,NY,New York,True,,9589,691.0,36045,Jefferson,{'36045':100},Jefferson,36045,False,False,America/New_York
43,98402,6200,2689,0.43370967741935484,47.24859,-122.43869,Tacoma,WA,Washington,True,,6240,2606.3,53053,Pierce,{'53053':100},Pierce,53053,False,False,America/Los_Angeles
44,79908,5861,2497,0.4260365125405221,31.857190000000003,-106.38038,El Paso,TX,Texas,True,,5907,72.7,48141,El Paso,{'48141':100},El Paso,48141,False,False,America/Denver
45,98433,18262,7748,0.42426897382542983,47.1113,-122.58723,Tacoma,WA,Washington,True,,18909,286.1,53053,Pierce,{'53053':100},Pierce,53053,False,False,America/Los_Angeles
46,95616,51925,22000,0.4236880115551276,38.55932,-121.7977,Davis,CA,California,True,,52088,658.9,6113,Yolo,{'06113':100},Yolo,06113,False,False,America/Los_Angeles
47,32542,3020,1279,0.4235099337748344,30.55285,-86.57432,Eglin Afb,FL,Florida,True,,3081,82.2,12091,Okaloosa,{'12091':100},Okaloosa,12091,False,False,America/Chicago
48,30363,3559,1506,0.4231525709468952,33.79099,-84.39918,Atlanta,GA,Georgia,True,,3559,3246.1,13121,Fulton,{'13121':100},Fulton,13121,False,False,America/New_York
49,17550,845,357,0.42248520710059173,40.07597,-76.5832,Maytown,PA,Pennsylvania,True,,889,1737.6,42071,Lancaster,{'42071':100},Lancaster,42071,False,False,America/New_York
50,71110,4798,2012,0.4193413922467695,32.50008,-93.59976,Barksdale Afb,LA,Louisiana,True,,4884,32.3,22015,Bossier,{'22015':100},Bossier,22015,False,False,America/Chicago
51,55101,7179,3000,0.41788549937317176,44.951209999999996,-93.09016,Saint Paul,MN,Minnesota,True,,7234,2647.3,27123,Ramsey,{'27123':100},Ramsey,27123,False,False,America/Chicago
52,98105,48643,20098,0.41317352959315834,47.66068,-122.28403,Seattle,WA,Washington,True,,48861,4108.7,53033,King,{'53033':100},King,53033,False,False,America/Los_Angeles
53,2109,3826,1579,0.4127025614218505,42.364740000000005,-71.05301,Boston,MA,Massachusetts,True,,3853,8401.7,25025,Suffolk,{'25025':100},Suffolk,25025,False,False,America/New_York
54,79607,3148,1298,0.41232528589580686,32.42853,-99.82545999999999,Dyess Afb,TX,Texas,True,,3268,291.6,48441,Taylor,{'48441':100},Taylor,48441,False,False,America/Chicago
55,40510,2012,814,0.40457256461232605,38.06892,-84.60141999999999,Lexington,KY,Kentucky,True,,2022,34.7,21067,Fayette,{'21067':100},Fayette,21067,False,False,America/New_York
56,86017,868,351,0.4043778801843318,34.89802,-111.63621,Munds Park,AZ,Arizona,True,,868,1.9,4005,Coconino,{'04005':100},Coconino,04005,False,False,America/Phoenix
57,19102,4925,1977,0.40142131979695433,39.952890000000004,-75.16548,Philadelphia,PA,Pennsylvania,True,,4937,9619.3,42101,Philadelphia,{'42101':100},Philadelphia,42101,False,False,America/New_York
58,93437,3248,1292,0.3977832512315271,34.73738,-120.54347,Lompoc,CA,California,True,,3379,33.2,6083,Santa Barbara,{'06083':100},Santa Barbara,06083,False,False,America/Los_Angeles
59,15222,4895,1925,0.39325842696629215,40.44763,-79.99336,Pittsburgh,PA,Pennsylvania,True,,4900,1565.2,42003,Allegheny,{'42003':100},Allegheny,42003,False,False,America/New_York
60,64105,4648,1823,0.3922117039586919,39.1048,-94.59108,Kansas City,MO,Missouri,True,,4679,1797.2,29095,Jackson,{'29095':100},Jackson,29095,False,False,America/Chicago
61,32544,1932,756,0.391304347826087,30.427940000000003,-86.69927,Hurlburt Field,FL,Florida,True,,2003,73.9,12091,Okaloosa,{'12091':100},Okaloosa,12091,False,False,America/Chicago
62,48823,50867,19801,0.38927005720801305,42.7619,-84.45391,East Lansing,MI,Michigan,True,,51230,884.1,26065,Ingham,"{'26037':14.5,'26065':85.5}",Ingham|Clinton,26065|26037,False,False,America/Detroit
63,99703,8526,3305,0.3876378137461881,64.8328,-147.62322,Fort Wainwright,AK,Alaska,True,,8859,311.4,2090,Fairbanks North Star,{'02090':100},Fairbanks North Star,02090,False,False,America/Anchorage
64,47906,75242,28984,0.3852103878153159,40.486959999999996,-86.98648,West Lafayette,IN,Indiana,True,,75899,191.4,18157,Tippecanoe,"{'18157':99.75,'18171':0.15,'18181':0.09}",Tippecanoe|Warren|White,18157|18171|18181,False,False,America/Indiana/Indianapolis
65,97401,44583,17040,0.3822084651100195,44.068259999999995,-123.08181,Eugene,OR,Oregon,True,,44750,1706.6,41039,Lane,{'41039':100},Lane,41039,False,False,America/Los_Angeles
66,97201,18101,6898,0.3810839180155792,45.50777,-122.68975,Portland,OR,Oregon,True,,18145,2943.5,41051,Multnomah,{'41051':100},Multnomah,41051,False,False,America/Los_Angeles
67,42223,19966,7580,0.37964539717519785,36.62825,-87.46282,Fort Campbell,KY,Kentucky,True,,20501,505.6,21047,Christian,"{'21047':68.99,'47125':31.01}",Christian|Montgomery,21047|47125,False,False,America/Chicago
68,75039,18848,7050,0.37404499151103565,32.88752,-96.94225,Irving,TX,Texas,True,,19297,810.6,48113,Dallas,{'48113':100},Dallas,48113,False,False,America/Chicago
69,33606,19385,7233,0.3731235491359298,27.93218,-82.46488000000001,Tampa,FL,Florida,True,,19466,2087.4,12057,Hillsborough,{'12057':100},Hillsborough,12057,False,False,America/New_York
70,98109,28881,10642,0.3684775457913507,47.63159,-122.34416999999999,Seattle,WA,Washington,True,,29154,4011.1,53033,King,{'53033':100},King,53033,False,False,America/Los_Angeles
71,27514,32114,11763,0.3662888459861742,35.967209999999994,-79.04446999999999,Chapel Hill,NC,North Carolina,True,,32304,637.7,37135,Orange,{'37135':100},Orange,37135,False,False,America/New_York
72,29404,1921,699,0.36387298282144714,32.89864,-80.05028,Charleston Afb,SC,South Carolina,True,,1981,102.3,45019,Charleston,{'45019':100},Charleston,45019,False,False,America/New_York
73,16801,44451,16117,0.3625790195946098,40.77888,-77.84134,State College,PA,Pennsylvania,True,,44641,528.6,42027,Centre,{'42027':100},Centre,42027,False,False,America/New_York
74,60661,9694,3510,0.3620796368887972,41.883070000000004,-87.64401,Chicago,IL,Illinois,True,,9926,10120.5,17031,Cook,{'17031':100},Cook,17031,False,False,America/Chicago
75,99011,3000,1082,0.3606666666666667,47.618829999999996,-117.64811999999999,Fairchild Air Force Base,WA,Washington,True,,3118,163.8,53063,Spokane,{'53063':100},Spokane,53063,False,False,America/Los_Angeles
76,84056,3246,1167,0.35951940850277264,41.126490000000004,-111.99016999999999,Hill Afb,UT,Utah,True,,3336,135.6,49011,Davis,{'49011':100},Davis,49011,False,False,America/Denver
77,92122,47659,16907,0.354749365282528,32.85926,-117.17007,San Diego,CA,California,True,,48438,1059.1,6073,San Diego,{'06073':100},San Diego,06073,False,False,America/Los_Angeles
78,14802,4247,1506,0.3546032493524841,42.25326,-77.78926,Alfred,NY,New York,True,,4251,1534.8,36003,Allegany,{'36003':100},Allegany,36003,False,False,America/New_York
79,99702,2952,1037,0.35128726287262874,64.64824,-147.04901,Eielson Afb,AK,Alaska,True,,3006,63.3,2090,Fairbanks North Star,{'02090':100},Fairbanks North Star,02090,False,False,America/Anchorage
80,94304,3850,1345,0.34935064935064936,37.381890000000006,-122.17392,Palo Alto,CA,California,True,,3902,215.4,6085,Santa Clara,{'06085':100},Santa Clara,06085,False,False,America/Los_Angeles
81,30605,41024,14282,0.3481376755070203,33.90656,-83.32327,Athens,GA,Georgia,True,,41451,421.0,13059,Clarke,"{'13059':99.48,'13219':0.52}",Clarke|Oconee,13059|13219,False,False,America/New_York
82,73134,5469,1898,0.3470469921375023,35.61422,-97.56826,Oklahoma City,OK,Oklahoma,True,,5573,400.7,40109,Oklahoma,{'40109':100},Oklahoma,40109,False,False,America/Chicago
83,22060,9670,3348,0.34622543950361945,38.705420000000004,-77.1564,Fort Belvoir,VA,Virginia,True,,9858,260.5,51059,Fairfax,{'51059':100},Fairfax,51059,False,False,America/New_York
84,55805,9513,3291,0.34594765058341215,46.800779999999996,-92.09564,Duluth,MN,Minnesota,True,,9556,2788.6,27137,St. Louis,{'27137':100},St. Louis,27137,False,False,America/Chicago
85,24060,55301,19055,0.3445688143071554,37.25676,-80.42107,Blacksburg,VA,Virginia,True,,55747,154.9,51121,Montgomery,{'51121':100},Montgomery,51121,False,False,America/New_York
86,53726,5328,1835,0.3444069069069069,43.06975,-89.42264,Madison,WI,Wisconsin,True,,5334,4018.1,55025,Dane,{'55025':100},Dane,55025,False,False,America/Chicago
87,32601,18471,6361,0.3443776731091982,29.64886,-82.325,Gainesville,FL,Florida,True,,18579,1579.0,12001,Alachua,{'12001':100},Alachua,12001,False,False,America/New_York
88,1002,29904,10160,0.33975387907972177,42.37492,-72.4621,Amherst,MA,Massachusetts,True,,30066,203.7,25015,Hampshire,"{'25011':0.97,'25015':99.03}",Hampshire|Franklin,25015|25011,False,False,America/New_York
89,27605,5456,1852,0.33944281524926684,35.79067,-78.65459,Raleigh,NC,North Carolina,True,,5490,1758.0,37183,Wake,{'37183':100},Wake,37183,False,False,America/New_York
90,33762,8044,2728,0.3391347588264545,27.896829999999998,-82.67971,Clearwater,FL,Florida,True,,8093,447.9,12103,Pinellas,{'12103':100},Pinellas,12103,False,False,America/New_York
91,58204,2244,759,0.3382352941176471,47.95497,-97.38681,Grand Forks Afb,ND,North Dakota,True,,2347,105.7,38035,Grand Forks,{'38035':100},Grand Forks,38035,False,False,America/Chicago
92,66502,45080,15232,0.337888198757764,39.1512,-96.53124,Manhattan,KS,Kansas,True,,45697,73.8,20161,Riley,"{'20061':0.13,'20149':7.25,'20161':92.54,'20197':0.08}",Riley|Pottawatomie|Geary|Wabaunsee,20161|20149|20061|20197,False,False,America/Chicago
93,1079,658,222,0.3373860182370821,42.19437,-72.33014,Thorndike,MA,Massachusetts,True,,658,237.5,25013,Hampden,{'25013':100},Hampden,25013,False,False,America/New_York
94,60606,3065,1026,0.33474714518760196,41.88195,-87.63731,Chicago,IL,Illinois,True,,3101,4051.1,17031,Cook,{'17031':100},Cook,17031,False,False,America/Chicago
95,37212,20849,6900,0.33095112475418487,36.13388,-86.80111,Nashville,TN,Tennessee,True,,21031,2804.7,47037,Davidson,{'47037':100},Davidson,47037,False,False,America/Chicago
96,20762,2818,923,0.3275372604684173,38.80731,-76.87482,Andrews Air Force Base,MD,Maryland,True,,2964,194.8,24033,Prince George's,{'24033':100},Prince George's,24033,False,False,America/New_York
97,1731,2019,659,0.32639920752847945,42.45675,-71.27951999999999,Hanscom Afb,MA,Massachusetts,True,,2061,680.4,25017,Middlesex,{'25017':100},Middlesex,25017,False,False,America/New_York
98,15203,9767,3185,0.32609808538957713,40.42631,-79.97641,Pittsburgh,PA,Pennsylvania,True,,9777,2602.4,42003,Allegheny,{'42003':100},Allegheny,42003,False,False,America/New_York
99,96130,20294,6602,0.32531782792943725,40.548759999999994,-120.68498999999998,Susanville,CA,California,True,,20553,18.6,6035,Lassen,{'06035':100},Lassen,06035,False,False,America/Los_Angeles
100,78701,9422,3058,0.32455954149862026,30.270490000000002,-97.74235,Austin,TX,Texas,True,,9427,1621.8,48453,Travis,{'48453':100},Travis,48453,False,False,America/Chicago
101,98122,38476,12486,0.3245139827424888,47.611509999999996,-122.2918,Seattle,WA,Washington,True,,38620,5250.8,53033,King,{'53033':100},King,53033,False,False,America/Los_Angeles
102,27858,59068,19141,0.32405024717275005,35.532070000000004,-77.29789,Greenville,NC,North Carolina,True,,59652,357.5,37147,Pitt,{'37147':100},Pitt,37147,False,False,America/New_York
103,98327,9207,2952,0.3206256109481916,47.10125,-122.66073,Dupont,WA,Washington,True,,9431,466.2,53053,Pierce,{'53053':100},Pierce,53053,False,False,America/Los_Angeles
104,80045,889,285,0.3205849268841395,39.74754,-104.83861,Aurora,CO,Colorado,True,,889,159.6,8001,Adams,{'08001':100},Adams,08001,False,False,America/Denver
105,98225,49559,15831,0.31943743820496784,48.75309,-122.50148999999999,Bellingham,WA,Washington,True,,49877,1410.9,53073,Whatcom,{'53073':100},Whatcom,53073,False,False,America/Los_Angeles
106,84102,17859,5698,0.3190548182988969,40.76021,-111.86438999999999,Salt Lake City,UT,Utah,True,,18099,3792.1,49035,Salt Lake,{'49035':100},Salt Lake,49035,False,False,America/Denver
107,55401,9518,3022,0.3175036772431183,44.984790000000004,-93.26946,Minneapolis,MN,Minnesota,True,,9595,2824.8,27053,Hennepin,{'27053':100},Hennepin,27053,False,False,America/Chicago
108,43202,20920,6619,0.31639579349904395,40.02143,-83.01415,Columbus,OH,Ohio,True,,21141,3118.1,39049,Franklin,{'39049':100},Franklin,39049,False,False,America/New_York
109,8640,7703,2437,0.3163702453589511,40.0035,-74.58933,Joint Base Mdl,NJ,New Jersey,True,,7753,139.0,34005,Burlington,{'34005':100},Burlington,34005,False,False,America/New_York
110,91708,3867,1221,0.3157486423584174,33.95398,-117.64045,Chino,CA,California,True,,3892,137.0,6071,San Bernardino,{'06071':100},San Bernardino,06071,False,False,America/Los_Angeles
111,33716,17817,5624,0.315653589268676,27.876440000000002,-82.65141,Saint Petersburg,FL,Florida,True,,18043,813.7,12103,Pinellas,{'12103':100},Pinellas,12103,False,False,America/New_York
112,63101,3307,1042,0.3150892047172664,38.631440000000005,-90.19264,Saint Louis,MO,Missouri,True,,3307,2678.9,29510,St. Louis,{'29510':100},St. Louis,29510,False,False,America/Chicago
113,92618,42414,13334,0.31437732824067527,33.66816,-117.73421,Irvine,CA,California,True,,43316,299.0,6059,Orange,{'06059':100},Orange,06059,False,False,America/Los_Angeles
114,85054,6850,2151,0.31401459854014596,33.67311,-111.94612,Phoenix,AZ,Arizona,True,,6896,231.0,4013,Maricopa,{'04013':100},Maricopa,04013,False,False,America/Phoenix
115,28204,6662,2091,0.31386970879615733,35.21467,-80.82706999999999,Charlotte,NC,North Carolina,True,,6725,1071.1,37119,Mecklenburg,{'37119':100},Mecklenburg,37119,False,False,America/New_York
116,28262,42767,13406,0.31346599013257886,35.32513,-80.74223,Charlotte,NC,North Carolina,True,,43046,669.1,37119,Mecklenburg,"{'37025':0.01,'37119':99.99}",Mecklenburg|Cabarrus,37119|37025,False,False,America/New_York
117,32832,24052,7535,0.31327956095127224,28.39793,-81.18697,Orlando,FL,Florida,True,,24325,94.7,12095,Orange,{'12095':100},Orange,12095,False,False,America/New_York
118,28532,21712,6756,0.3111643330876934,34.88813,-76.90890999999999,Havelock,NC,North Carolina,True,,22205,54.4,37049,Craven,{'37049':100},Craven,37049,False,False,America/New_York
119,2113,7517,2303,0.30637222296128774,42.36542,-71.0554,Boston,MA,Massachusetts,True,,7531,26621.1,25025,Suffolk,{'25025':100},Suffolk,25025,False,False,America/New_York
120,10003,54077,16502,0.3051574606579507,40.7318,-73.98911,New York,NY,New York,True,,54682,37524.3,36061,New York,{'36061':100},New York,36061,False,False,America/New_York
121,73145,3187,970,0.30436146846564166,35.41912,-97.3941,Oklahoma City,OK,Oklahoma,True,,3277,189.6,40109,Oklahoma,{'40109':100},Oklahoma,40109,False,False,America/Chicago
122,75287,53879,16315,0.3028081441749104,33.00032,-96.84111,Dallas,TX,Texas,True,,54882,3379.8,48121,Denton,"{'48085':47.25,'48113':0,'48121':52.75}",Denton|Collin|Dallas,48121|48085|48113,False,False,America/Chicago
123,66047,19761,5977,0.3024644501796468,38.88006,-95.34776,Lawrence,KS,Kansas,True,,19928,133.1,20045,Douglas,{'20045':100},Douglas,20045,False,False,America/Chicago
124,30346,4896,1473,0.3008578431372549,33.924279999999996,-84.33886,Atlanta,GA,Georgia,True,,4965,1801.5,13089,DeKalb,{'13089':100},DeKalb,13089,False,False,America/New_York
125,14850,64036,19231,0.3003154475607471,42.431020000000004,-76.49958000000001,Ithaca,NY,New York,True,,64484,195.8,36109,Tompkins,{'36109':100},Tompkins,36109,False,False,America/New_York
126,13616,2193,653,0.297765617875057,44.02608,-75.85861,Calcium,NY,New York,True,,2229,131.0,36045,Jefferson,{'36045':100},Jefferson,36045,False,False,America/New_York
127,66046,19302,5729,0.2968086208683038,38.90777,-95.21351999999999,Lawrence,KS,Kansas,True,,19456,183.9,20045,Douglas,{'20045':100},Douglas,20045,False,False,America/Chicago
128,54022,22857,6773,0.29632060200376253,44.84792,-92.60803,River Falls,WI,Wisconsin,True,,23061,61.5,55093,Pierce,"{'55093':72.17,'55109':27.83}",Pierce|St. Croix,55093|55109,False,False,America/Chicago
129,30326,6030,1779,0.29502487562189056,33.84943,-84.36386,Atlanta,GA,Georgia,True,,6030,2680.1,13121,Fulton,{'13121':100},Fulton,13121,False,False,America/New_York
130,23517,4350,1283,0.2949425287356322,36.8696,-76.29241,Norfolk,VA,Virginia,True,,4421,2168.7,51710,Norfolk,{'51710':100},Norfolk,51710,False,False,America/New_York
131,86001,45684,13426,0.293888451098853,35.28949,-111.63774,Flagstaff,AZ,Arizona,True,,46041,17.8,4005,Coconino,{'04005':100},Coconino,04005,False,False,America/Phoenix
132,76549,50383,14783,0.29341246055217035,31.013170000000002,-97.82996,Killeen,TX,Texas,True,,51767,223.8,48027,Bell,"{'48027':99.2,'48053':0.4,'48099':0.4}",Bell|Burnet|Coryell,48027|48053|48099,False,False,America/Chicago
133,82070,20176,5879,0.29138580491673277,41.20538,-105.83205,Laramie,WY,Wyoming,True,,20336,7.0,56001,Albany,{'56001':100},Albany,56001,False,False,America/Denver
134,97333,22786,6632,0.2910559115246204,44.473659999999995,-123.30733000000001,Corvallis,OR,Oregon,True,,22994,71.0,41003,Benton,"{'41003':94.03,'41043':5.97}",Benton|Linn,41003|41043,False,False,America/Los_Angeles
135,59716,2601,757,0.29104190695886195,45.10265,-111.48678999999998,Big Sky,MT,Montana,True,,2612,1.7,30031,Gallatin,"{'30031':75.53,'30057':24.47}",Gallatin|Madison,30031|30057,False,False,America/Denver
136,63105,18186,5280,0.2903332233586275,38.64436,-90.32831,Saint Louis,MO,Missouri,True,,18333,2554.5,29189,St. Louis,"{'29189':94.03,'29510':5.97}",St. Louis|St. Louis,29189|29510,False,False,America/Chicago
137,10996,6558,1904,0.2903324184202501,41.38975,-73.97267,West Point,NY,New York,True,,6673,804.1,36071,Orange,{'36071':100},Orange,36071,False,False,America/New_York
138,22201,37094,10743,0.28961557125141535,38.88661,-77.09521,Arlington,VA,Virginia,True,,37545,5532.4,51013,Arlington,{'51013':100},Arlington,51013,False,False,America/New_York
139,84341,22927,6623,0.2888733807301435,41.77583,-111.80693000000001,Logan,UT,Utah,True,,23426,634.0,49005,Cache,{'49005':100},Cache,49005,False,False,America/Denver
140,64112,8309,2400,0.2888434227945601,39.03598,-94.59529,Kansas City,MO,Missouri,True,,8352,2132.8,29095,Jackson,{'29095':100},Jackson,29095,False,False,America/Chicago
141,32256,44747,12875,0.2877287862873489,30.187829999999998,-81.50041,Jacksonville,FL,Florida,True,,45688,233.9,12031,Duval,{'12031':100},Duval,12031,False,False,America/New_York
142,80230,9174,2633,0.28700675822977983,39.71946,-104.89031000000001,Denver,CO,Colorado,True,,9349,1173.2,8031,Denver,{'08031':100},Denver,08031,False,False,America/Denver
143,98337,6903,1979,0.28668694770389685,47.56862,-122.6309,Bremerton,WA,Washington,True,,7039,2491.4,53035,Kitsap,{'53035':100},Kitsap,53035,False,False,America/Los_Angeles
144,73072,46319,13277,0.2866426304540253,35.20827,-97.50317,Norman,OK,Oklahoma,True,,46675,313.6,40027,Cleveland,"{'40027':95.13,'40087':4.87}",Cleveland|McClain,40027|40087,False,False,America/Chicago
145,93626,1940,556,0.2865979381443299,37.04218,-119.6807,Friant,CA,California,True,,1983,5.3,6019,Fresno,"{'06019':75.94,'06039':24.06}",Fresno|Madera,06019|06039,False,False,America/Los_Angeles
146,77007,36998,10565,0.28555597599870264,29.771279999999997,-95.41145,Houston,TX,Texas,True,,37492,1525.4,48201,Harris,{'48201':100},Harris,48201,False,False,America/Chicago
147,43240,4283,1221,0.2850805510156432,40.14545,-82.98172,Columbus,OH,Ohio,True,,4295,534.0,39041,Delaware,{'39041':100},Delaware,39041,False,False,America/New_York
148,8542,5927,1687,0.2846296608739666,40.3529,-74.66031,Princeton,NJ,New Jersey,True,,5927,3867.7,34021,Mercer,{'34021':100},Mercer,34021,False,False,America/New_York
149,94105,8984,2553,0.28417186108637577,37.7898,-122.39386,San Francisco,CA,California,True,,9155,6205.8,6075,San Francisco,{'06075':100},San Francisco,06075,False,False,America/Los_Angeles
150,35205,19927,5642,0.28313343704521504,33.49496,-86.80825,Birmingham,AL,Alabama,True,,20109,2100.2,1073,Jefferson,{'01073':100},Jefferson,01073,False,False,America/Chicago
151,98326,657,186,0.2831050228310502,48.167790000000004,-124.38897,Clallam Bay,WA,Washington,True,,657,1.9,53009,Clallam,{'53009':100},Clallam,53009,False,False,America/Los_Angeles
152,69337,7035,1990,0.2828713574982232,42.82655,-103.0109,Chadron,NE,Nebraska,True,,7059,4.1,31045,Dawes,"{'31045':99.66,'31161':0.34}",Dawes|Sheridan,31045|31161,False,False,America/Denver
153,80840,6591,1862,0.28250644818692155,38.99467,-104.85708000000001,Usaf Academy,CO,Colorado,True,,6633,89.3,8041,El Paso,{'08041':100},El Paso,08041,False,False,America/Denver
154,20036,5742,1617,0.28160919540229884,38.90696,-77.04166,Washington,DC,District of Columbia,True,,5798,6303.5,11001,District of Columbia,{'11001':100},District of Columbia,11001,False,False,America/New_York
155,19127,6022,1693,0.2811358352706742,40.02809,-75.22698000000001,Philadelphia,PA,Pennsylvania,True,,6082,4153.7,42101,Philadelphia,{'42101':100},Philadelphia,42101,False,False,America/New_York
156,97495,1839,517,0.2811310494834149,43.28778,-123.3054,Winchester,OR,Oregon,True,,1858,75.8,41019,Douglas,{'41019':100},Douglas,41019,False,False,America/Los_Angeles
157,29401,9601,2698,0.2810123945422352,32.778690000000005,-79.93494,Charleston,SC,South Carolina,True,,9627,2711.9,45019,Charleston,{'45019':100},Charleston,45019,False,False,America/New_York
158,54601,50230,14087,0.28044993032052556,43.804390000000005,-91.1425,La Crosse,WI,Wisconsin,True,,50761,258.8,55063,La Crosse,{'55063':100},La Crosse,55063,False,False,America/Chicago
159,6090,842,236,0.28028503562945367,41.94648,-72.86315,West Granby,CT,Connecticut,True,,857,35.1,9003,Hartford,{'09003':100},Hartford,09003,False,False,America/New_York
160,80924,8484,2375,0.27993870815652994,38.96751,-104.7211,Colorado Springs,CO,Colorado,True,,8652,321.0,8041,El Paso,{'08041':100},El Paso,08041,False,False,America/Denver
161,2108,4082,1142,0.2797648211660951,42.35767,-71.06505,Boston,MA,Massachusetts,True,,4082,10824.7,25025,Suffolk,{'25025':100},Suffolk,25025,False,False,America/New_York
162,11109,5886,1643,0.27913693510023785,40.74589,-73.95751,Long Island City,NY,New York,True,,5981,27330.4,36081,Queens,{'36081':100},Queens,36081,False,False,America/New_York
163,60195,5471,1523,0.27837689636263935,42.06708,-88.09125999999999,Schaumburg,IL,Illinois,True,,5568,932.9,17031,Cook,{'17031':100},Cook,17031,False,False,America/Chicago
164,57006,26071,7207,0.2764374208891105,44.315259999999995,-96.79634,Brookings,SD,South Dakota,True,,26315,60.9,46011,Brookings,"{'46011':99.42,'46101':0.58}",Brookings|Moody,46011|46101,False,False,America/Chicago
165,10005,8756,2404,0.2745545911375057,40.70616,-74.00907,New York,NY,New York,True,,8831,37900.9,36061,New York,{'36061':100},New York,36061,False,False,America/New_York
166,97330,42343,11623,0.27449637484353967,44.63645,-123.27656,Corvallis,OR,Oregon,True,,42614,207.7,41003,Benton,{'41003':100},Benton,41003,False,False,America/Los_Angeles
167,2467,21759,5965,0.27413943655498874,42.31641,-71.16118,Chestnut Hill,MA,Massachusetts,True,,21864,1782.0,25021,Norfolk,"{'25017':37.9,'25021':38.86,'25025':23.24}",Norfolk|Middlesex|Suffolk,25021|25017|25025,False,False,America/New_York
168,94158,7084,1935,0.27315076228119706,37.76976,-122.3876,San Francisco,CA,California,True,,7291,2812.4,6075,San Francisco,{'06075':100},San Francisco,06075,False,False,America/Los_Angeles
169,99587,2029,554,0.27304090685066534,60.92414,-148.92413,Girdwood,AK,Alaska,True,,2065,3.6,2020,Anchorage,{'02020':100},Anchorage,02020,False,False,America/Anchorage
170,32814,7155,1949,0.2723969252271139,28.57015,-81.32648,Orlando,FL,Florida,True,,7155,1820.6,12095,Orange,{'12095':100},Orange,12095,False,False,America/New_York
171,97227,4733,1288,0.27213184027044157,45.544290000000004,-122.67855,Portland,OR,Oregon,True,,4759,1107.9,41051,Multnomah,{'41051':100},Multnomah,41051,False,False,America/Los_Angeles
172,76542,49071,13268,0.27038372969778485,31.0106,-97.74609,Killeen,TX,Texas,True,,49857,192.2,48027,Bell,{'48027':100},Bell,48027,False,False,America/Chicago
173,92109,47970,12963,0.27023139462163853,32.78699,-117.23325,San Diego,CA,California,True,,48417,2325.7,6073,San Diego,{'06073':100},San Diego,06073,False,False,America/Los_Angeles
174,90094,9117,2448,0.26850937808489633,33.975390000000004,-118.417,Playa Vista,CA,California,True,,9368,3460.4,6037,Los Angeles,{'06037':100},Los Angeles,06037,False,False,America/Los_Angeles
175,76109,23090,6199,0.26847119965352967,32.701,-97.38391999999999,Fort Worth,TX,Texas,True,,23512,1028.1,48439,Tarrant,{'48439':100},Tarrant,48439,False,False,America/Chicago
176,78249,58705,15758,0.2684268801635295,29.567940000000004,-98.61344,San Antonio,TX,Texas,True,,59508,1296.0,48029,Bexar,{'48029':100},Bexar,48029,False,False,America/Chicago
177,60657,69158,18554,0.26828421874548136,41.93998,-87.65374,Chicago,IL,Illinois,True,,70052,11207.9,17031,Cook,{'17031':100},Cook,17031,False,False,America/Chicago
178,27617,18553,4969,0.26782730555705275,35.90726,-78.7717,Raleigh,NC,North Carolina,True,,18856,701.4,37183,Wake,"{'37063':0.75,'37183':99.25}",Wake|Durham,37183|37063,False,False,America/New_York
179,54751,25758,6880,0.26710148303439707,44.850609999999996,-91.93037,Menomonie,WI,Wisconsin,True,,25969,43.5,55033,Dunn,{'55033':100},Dunn,55033,False,False,America/Chicago
180,34987,8634,2306,0.2670836228862636,27.280959999999997,-80.50116,Port Saint Lucie,FL,Florida,True,,8660,23.1,12111,St. Lucie,{'12111':100},St. Lucie,12111,False,False,America/New_York
181,14882,4024,1074,0.2668986083499006,42.58017,-76.55499,Lansing,NY,New York,True,,4072,44.5,36109,Tompkins,{'36109':100},Tompkins,36109,False,False,America/New_York
182,1375,3588,957,0.26672240802675584,42.465109999999996,-72.55461,Sunderland,MA,Massachusetts,True,,3659,100.0,25011,Franklin,{'25011':100},Franklin,25011,False,False,America/New_York
183,90401,7245,1931,0.2665286404416839,34.01546,-118.49255,Santa Monica,CA,California,True,,7256,3058.2,6037,Los Angeles,{'06037':100},Los Angeles,06037,False,False,America/Los_Angeles
184,10595,8247,2194,0.26603613435188556,41.086459999999995,-73.78201,Valhalla,NY,New York,True,,8341,531.9,36119,Westchester,{'36119':100},Westchester,36119,False,False,America/New_York
185,20190,18930,5033,0.2658742736397253,38.95978,-77.33686999999999,Reston,VA,Virginia,True,,19204,1501.9,51059,Fairfax,{'51059':100},Fairfax,51059,False,False,America/New_York
186,75063,38378,10202,0.2658293814164365,32.92047,-96.986,Irving,TX,Texas,True,,38952,894.5,48113,Dallas,{'48113':100},Dallas,48113,False,False,America/Chicago
187,27606,46028,12185,0.2647301642478491,35.74049,-78.71758,Raleigh,NC,North Carolina,True,,46589,672.6,37183,Wake,{'37183':100},Wake,37183,False,False,America/New_York
188,23507,6599,1742,0.26397939081679045,36.864509999999996,-76.30311999999999,Norfolk,VA,Virginia,True,,6715,11101.4,51710,Norfolk,{'51710':100},Norfolk,51710,False,False,America/New_York
189,60614,70419,18549,0.2634090231329613,41.9228,-87.65139,Chicago,IL,Illinois,True,,71308,8244.5,17031,Cook,{'17031':100},Cook,17031,False,False,America/Chicago
190,2210,3139,819,0.26091111819050655,42.34778,-71.03905999999999,Boston,MA,Massachusetts,True,,3196,839.8,25025,Suffolk,{'25025':100},Suffolk,25025,False,False,America/New_York
191,77077,57336,14946,0.26067392214315616,29.750120000000003,-95.61547,Houston,TX,Texas,True,,58131,2302.4,48201,Harris,{'48201':100},Harris,48201,False,False,America/Chicago
192,21204,21547,5588,0.25934004733837657,39.40258,-76.6326,Towson,MD,Maryland,True,,21628,1297.4,24005,Baltimore,{'24005':100},Baltimore,24005,False,False,America/New_York
193,98004,34731,8987,0.2587601854251245,47.618840000000006,-122.20595,Bellevue,WA,Washington,True,,35034,1532.4,53033,King,{'53033':100},King,53033,False,False,America/Los_Angeles
194,97070,24030,6192,0.25767790262172285,45.30757,-122.77153,Wilsonville,OR,Oregon,True,,24339,424.1,41005,Clackamas,"{'41005':89.09,'41067':10.91}",Clackamas|Washington,41005|41067,False,False,America/Los_Angeles
195,35824,8505,2182,0.25655496766607877,34.6444,-86.75324,Huntsville,AL,Alabama,True,,8645,183.7,1089,Madison,{'01089':100},Madison,01089,False,False,America/Chicago
196,80124,21207,5411,0.25515160088649974,39.53184,-104.89206999999999,Lone Tree,CO,Colorado,True,,21384,733.2,8035,Douglas,{'08035':100},Douglas,08035,False,False,America/Denver
197,92606,24372,6193,0.2541030690956836,33.700390000000006,-117.81725,Irvine,CA,California,True,,24694,1712.9,6059,Orange,{'06059':100},Orange,06059,False,False,America/Los_Angeles
198,8536,19512,4955,0.2539462894628946,40.33428,-74.58234,Plainsboro,NJ,New Jersey,True,,19793,1061.3,34023,Middlesex,{'34023':100},Middlesex,34023,False,False,America/New_York
199,60610,38510,9743,0.25299922098156324,41.90487,-87.63615,Chicago,IL,Illinois,True,,39019,12585.9,17031,Cook,{'17031':100},Cook,17031,False,False,America/Chicago
200,32730,5935,1496,0.25206402695871943,28.65328,-81.34359,Casselberry,FL,Florida,True,,5991,1739.3,12117,Seminole,{'12117':100},Seminole,12117,False,False,America/New_York
201,28594,3697,931,0.2518258047065188,34.66485,-77.02923,Emerald Isle,NC,North Carolina,True,,3697,246.5,37031,Carteret,{'37031':100},Carteret,37031,False,False,America/New_York
202,10010,33431,8407,0.25147318357213366,40.73914,-73.98255,New York,NY,New York,True,,33730,32205.4,36061,New York,{'36061':100},New York,36061,False,False,America/New_York
203,32608,48512,12087,0.24915484828496043,29.5969,-82.4066,Gainesville,FL,Florida,True,,48905,454.0,12001,Alachua,{'12001':100},Alachua,12001,False,False,America/New_York
204,22314,33317,8292,0.2488819521565567,38.80725,-77.05678,Alexandria,VA,Virginia,True,,33926,3010.5,51510,Alexandria,{'51510':100},Alexandria,51510,False,False,America/New_York
205,60604,782,194,0.24808184143222506,41.87814,-87.62836999999999,Chicago,IL,Illinois,True,,782,2376.8,17031,Cook,{'17031':100},Cook,17031,False,False,America/Chicago
206,77070,52460,13014,0.2480747235989325,29.977759999999996,-95.57315,Houston,TX,Texas,True,,53239,1363.1,48201,Harris,{'48201':100},Harris,48201,False,False,America/Chicago
207,21005,2661,656,0.2465238632093198,39.47415,-76.1189,Aberdeen Proving Ground,MD,Maryland,True,,2723,102.3,24025,Harford,{'24025':100},Harford,24025,False,False,America/New_York
208,23294,17879,4403,0.24626656971866434,37.63043,-77.54236,Henrico,VA,Virginia,True,,18168,1638.2,51087,Henrico,{'51087':100},Henrico,51087,False,False,America/New_York
209,33621,2504,616,0.24600638977635783,27.843609999999998,-82.50103,Tampa,FL,Florida,True,,2533,76.2,12057,Hillsborough,{'12057':100},Hillsborough,12057,False,False,America/New_York
210,78373,4075,1002,0.24588957055214725,27.770809999999997,-97.12146,Port Aransas,TX,Texas,True,,4174,83.1,48355,Nueces,{'48355':100},Nueces,48355,False,False,America/Chicago
211,10069,5025,1235,0.24577114427860697,40.77606,-73.99025,New York,NY,New York,True,,5085,20875.8,36061,New York,{'36061':100},New York,36061,False,False,America/New_York
212,77069,18527,4539,0.24499379284287795,29.9857,-95.52438000000001,Houston,TX,Texas,True,,18622,1333.5,48201,Harris,{'48201':100},Harris,48201,False,False,America/Chicago
213,77046,961,235,0.2445369406867846,29.733759999999997,-95.4334,Houston,TX,Texas,True,,970,3953.2,48201,Harris,{'48201':100},Harris,48201,False,False,America/Chicago
214,60611,32153,7860,0.24445619382328243,41.89472,-87.61938,Chicago,IL,Illinois,True,,32426,13562.3,17031,Cook,{'17031':100},Cook,17031,False,False,America/Chicago
215,46075,6416,1562,0.24345386533665836,40.02528,-86.33489,Whitestown,IN,Indiana,True,,6544,36.4,18011,Boone,{'18011':100},Boone,18011,False,False,America/Indiana/Indianapolis
216,90036,37568,9127,0.24294612436115842,34.070159999999994,-118.34987,Los Angeles,CA,California,True,,37988,5761.9,6037,Los Angeles,{'06037':100},Los Angeles,06037,False,False,America/Los_Angeles
217,23451,42170,10231,0.24261323215556083,36.86739,-76.00587,Virginia Beach,VA,Virginia,True,,42776,865.8,51810,Virginia Beach,{'51810':100},Virginia Beach,51810,False,False,America/New_York
218,38016,46989,11376,0.2420992147098257,35.179809999999996,-89.75885,Cordova,TN,Tennessee,True,,47757,873.3,47157,Shelby,{'47157':100},Shelby,47157,False,False,America/Chicago
219,20714,4537,1097,0.2417897288957461,38.72222,-76.54613,North Beach,MD,Maryland,True,,4622,719.1,24009,Calvert,"{'24003':20.83,'24009':79.17}",Calvert|Anne Arundel,24009|24003,False,False,America/New_York
220,60613,49293,11900,0.24141358813624653,41.95583,-87.65796,Chicago,IL,Illinois,True,,50113,8572.6,17031,Cook,{'17031':100},Cook,17031,False,False,America/Chicago
221,34747,19244,4629,0.24054250675535233,28.3096,-81.59665,Kissimmee,FL,Florida,True,,19413,119.2,12097,Osceola,"{'12095':0,'12097':100}",Osceola|Orange,12097|12095,False,False,America/New_York
222,98943,863,207,0.2398609501738123,47.185629999999996,-120.95844,South Cle Elum,WA,Washington,True,,863,296.7,53037,Kittitas,{'53037':100},Kittitas,53037,False,False,America/Los_Angeles
223,95054,23842,5672,0.2378995050750776,37.39349,-121.96467,Santa Clara,CA,California,True,,24264,1439.8,6085,Santa Clara,{'06085':100},Santa Clara,06085,False,False,America/Los_Angeles
224,80442,2315,550,0.23758099352051837,39.9348,-105.88145,Fraser,CO,Colorado,True,,2323,12.7,8049,Grand,{'08049':100},Grand,08049,False,False,America/Denver
225,34715,17806,4227,0.23739189037403122,28.62586,-81.73055,Clermont,FL,Florida,True,,17948,177.9,12069,Lake,{'12069':100},Lake,12069,False,False,America/New_York
226,45050,8728,2070,0.23716773602199817,39.44536,-84.35915,Monroe,OH,Ohio,True,,8773,443.4,39017,Butler,"{'39017':99.12,'39165':0.88}",Butler|Warren,39017|39165,False,False,America/New_York
227,78756,8194,1931,0.2356602391994142,30.32227,-97.74016999999999,Austin,TX,Texas,True,,8323,1661.7,48453,Travis,{'48453':100},Travis,48453,False,False,America/Chicago
228,96818,58134,13690,0.23549041868785908,21.34755,-157.93857,Honolulu,HI,Hawaii,True,,59482,1702.8,15003,Honolulu,{'15003':100},Honolulu,15003,False,False,Pacific/Honolulu
229,85282,54139,12744,0.23539407820609912,33.39416,-111.93186999999999,Tempe,AZ,Arizona,True,,54649,1681.9,4013,Maricopa,{'04013':100},Maricopa,04013,False,False,America/Phoenix
230,52241,20310,4777,0.23520433284096504,41.69867,-91.59478,Coralville,IA,Iowa,True,,20681,615.2,19103,Johnson,{'19103':100},Johnson,19103,False,False,America/Chicago
231,96762,6614,1555,0.23510734804959177,21.62417,-157.94242,Laie,HI,Hawaii,True,,6686,205.6,15003,Honolulu,{'15003':100},Honolulu,15003,False,False,Pacific/Honolulu
232,34714,21519,5053,0.2348157442260328,28.4113,-81.78116999999999,Clermont,FL,Florida,True,,21743,52.5,12069,Lake,"{'12069':90.15,'12105':9.85}",Lake|Polk,12069|12105,False,False,America/New_York
233,78704,47833,11225,0.23467062488240337,30.24315,-97.76536999999999,Austin,TX,Texas,True,,48486,1871.5,48453,Travis,{'48453':100},Travis,48453,False,False,America/Chicago
234,95618,26511,6199,0.23382746784353664,38.54067,-121.68314,Davis,CA,California,True,,26743,301.5,6113,Yolo,"{'06095':0.34,'06113':99.66}",Yolo|Solano,06113|06095,False,False,America/Los_Angeles
235,98383,21113,4928,0.2334106948325676,47.66207,-122.71793000000001,Silverdale,WA,Washington,True,,21301,423.8,53035,Kitsap,{'53035':100},Kitsap,53035,False,False,America/Los_Angeles
236,78230,44749,10414,0.23272028425216207,29.546129999999998,-98.55551,San Antonio,TX,Texas,True,,45369,1448.3,48029,Bexar,{'48029':100},Bexar,48029,False,False,America/Chicago
237,48326,21641,5032,0.23252160251374707,42.67577,-83.25332,Auburn Hills,MI,Michigan,True,,21829,454.8,26125,Oakland,{'26125':100},Oakland,26125,False,False,America/Detroit
238,98103,50791,11779,0.23191116536394243,47.673320000000004,-122.34253999999999,Seattle,WA,Washington,True,,51377,3815.7,53033,King,{'53033':100},King,53033,False,False,America/Los_Angeles
239,80918,48742,11273,0.23127897911452136,38.91152,-104.78023,Colorado Springs,CO,Colorado,True,,49232,1465.4,8041,El Paso,{'08041':100},El Paso,08041,False,False,America/Denver
240,86301,22836,5278,0.23112629181993344,34.59172,-112.42642,Prescott,AZ,Arizona,True,,22919,257.4,4025,Yavapai,{'04025':100},Yavapai,04025,False,False,America/Phoenix
241,62704,40369,9326,0.23101885109861528,39.774,-89.68514,Springfield,IL,Illinois,True,,40828,1274.2,17167,Sangamon,{'17167':100},Sangamon,17167,False,False,America/Chicago
242,25443,7865,1816,0.2308963763509218,39.437259999999995,-77.81459,Shepherdstown,WV,West Virginia,True,,7913,104.5,54037,Jefferson,"{'54003':2.12,'54037':97.88}",Jefferson|Berkeley,54037|54003,False,False,America/New_York
243,39232,7853,1813,0.2308671845154718,32.32977,-90.09161,Flowood,MS,Mississippi,True,,7886,157.3,28121,Rankin,{'28121':100},Rankin,28121,False,False,America/Chicago
244,92121,4595,1059,0.23046789989118607,32.89918,-117.20233,San Diego,CA,California,True,,4655,131.7,6073,San Diego,{'06073':100},San Diego,06073,False,False,America/Los_Angeles
245,32550,8302,1913,0.23042640327631897,30.385540000000002,-86.34555999999999,Miramar Beach,FL,Florida,True,,8490,337.4,12131,Walton,{'12131':100},Walton,12131,False,False,America/Chicago
246,54701,39709,9149,0.23040116850084363,44.74438,-91.51059000000001,Eau Claire,WI,Wisconsin,True,,40130,174.4,55035,Eau Claire,"{'55033':0.34,'55035':99.66}",Eau Claire|Dunn,55035|55033,False,False,America/Chicago
247,19010,20872,4803,0.23011690302798007,40.023590000000006,-75.32978,Bryn Mawr,PA,Pennsylvania,True,,21027,966.8,42045,Delaware,"{'42045':61.26,'42091':38.74}",Delaware|Montgomery,42045|42091,False,False,America/New_York
248,28314,57163,13100,0.22916921785070762,35.05815,-79.0226,Fayetteville,NC,North Carolina,True,,58110,912.9,37051,Cumberland,{'37051':100},Cumberland,37051,False,False,America/New_York
249,98052,66954,15334,0.2290229112525017,47.681309999999996,-122.12031,Redmond,WA,Washington,True,,67779,1121.9,53033,King,{'53033':100},King,53033,False,False,America/Los_Angeles
250,81230,9622,2196,0.22822697983787155,38.42496,-106.95638999999998,Gunnison,CO,Colorado,True,,9718,2.0,8051,Gunnison,"{'08051':99.03,'08109':0.97}",Gunnison|Saguache,08051|08109,False,False,America/Denver
251,73120,35333,8009,0.22667194973537486,35.580459999999995,-97.57224000000001,Oklahoma City,OK,Oklahoma,True,,35771,1214.3,40109,Oklahoma,{'40109':100},Oklahoma,40109,False,False,America/Chicago
252,80014,38873,8798,0.22632675636045585,39.66353,-104.83814,Aurora,CO,Colorado,True,,39243,2008.1,8005,Arapahoe,"{'08005':87.84,'08031':12.16}",Arapahoe|Denver,08005|08031,False,False,America/Denver
253,85251,41280,9334,0.22611434108527131,33.49395,-111.91946999999999,Scottsdale,AZ,Arizona,True,,41575,1801.6,4013,Maricopa,{'04013':100},Maricopa,04013,False,False,America/Phoenix
254,78209,41687,9425,0.22608966824189797,29.48906,-98.45671,San Antonio,TX,Texas,True,,42045,1485.7,48029,Bexar,{'48029':100},Bexar,48029,False,False,America/Chicago
255,4543,2017,456,0.22607833415964304,44.034459999999996,-69.49212,Damariscotta,ME,Maine,True,,2028,68.9,23015,Lincoln,{'23015':100},Lincoln,23015,False,False,America/New_York
256,31301,3981,900,0.22607385079125847,31.75285,-81.6085,Allenhurst,GA,Georgia,True,,4006,149.9,13179,Liberty,"{'13179':69.64,'13183':30.36}",Liberty|Long,13179|13183,False,False,America/New_York
257,32792,50431,11400,0.22605143661636692,28.609959999999997,-81.2988,Winter Park,FL,Florida,True,,50991,1474.0,12095,Orange,"{'12095':57.55,'12117':42.45}",Orange|Seminole,12095|12117,False,False,America/New_York
258,61761,54646,12344,0.2258902755919921,40.52955,-88.95859,Normal,IL,Illinois,True,,55222,480.6,17113,McLean,{'17113':100},McLean,17113,False,False,America/Chicago
259,50263,23534,5311,0.2256734936687346,41.595620000000004,-93.87241,Waukee,IA,Iowa,True,,23858,179.0,19049,Dallas,{'19049':100},Dallas,19049,False,False,America/Chicago
260,95060,46990,10585,0.22526069376463076,37.034259999999996,-122.12038000000001,Santa Cruz,CA,California,True,,47367,264.0,6087,Santa Cruz,{'06087':100},Santa Cruz,06087,False,False,America/Los_Angeles
261,40509,39736,8930,0.22473323937990738,37.99785,-84.37619000000001,Lexington,KY,Kentucky,True,,40186,303.9,21067,Fayette,{'21067':100},Fayette,21067,False,False,America/New_York
262,3857,8934,2000,0.2238638907544213,43.069109999999995,-70.95184,Newmarket,NH,New Hampshire,True,,9064,275.0,33015,Rockingham,{'33015':100},Rockingham,33015,False,False,America/New_York
263,72211,21725,4859,0.22365937859608745,34.75063,-92.41712,Little Rock,AR,Arkansas,True,,22269,1091.2,5119,Pulaski,{'05119':100},Pulaski,05119,False,False,America/Chicago
264,85212,33124,7402,0.22346334983697622,33.32212,-111.63545,Mesa,AZ,Arizona,True,,33724,266.9,4013,Maricopa,{'04013':100},Maricopa,04013,False,False,America/Phoenix
265,85044,41118,9162,0.2228221216985262,33.34239,-112.00176,Phoenix,AZ,Arizona,True,,41449,1017.9,4013,Maricopa,{'04013':100},Maricopa,04013,False,False,America/Phoenix
266,78703,20505,4564,0.22257985857108023,30.29409,-97.76571,Austin,TX,Texas,True,,20890,1366.4,48453,Travis,{'48453':100},Travis,48453,False,False,America/Chicago
267,59802,19316,4289,0.22204390142886726,46.90363,-113.91978,Missoula,MT,Montana,True,,19437,154.4,30063,Missoula,{'30063':100},Missoula,30063,False,False,America/Denver
268,80922,28696,6344,0.22107610816838583,38.890640000000005,-104.70061,Colorado Springs,CO,Colorado,True,,29134,1713.0,8041,El Paso,{'08041':100},El Paso,08041,False,False,America/Denver
269,28449,1927,426,0.2210690192008303,33.98155,-77.9275,Kure Beach,NC,North Carolina,True,,1932,164.2,37129,New Hanover,{'37129':100},New Hanover,37129,False,False,America/New_York
270,33578,48793,10774,0.22081036214211056,27.863290000000003,-82.34943,Riverview,FL,Florida,True,,49634,657.8,12057,Hillsborough,{'12057':100},Hillsborough,12057,False,False,America/New_York
271,78728,20972,4616,0.22010299446881557,30.45655,-97.68986,Austin,TX,Texas,True,,21480,966.4,48453,Travis,"{'48453':91.38,'48491':8.62}",Travis|Williamson,48453|48491,False,False,America/Chicago
272,76177,9203,2022,0.2197109638161469,32.97521,-97.3112,Fort Worth,TX,Texas,True,,9361,130.6,48439,Tarrant,"{'48121':15.15,'48439':84.85}",Tarrant|Denton,48439|48121,False,False,America/Chicago
273,99824,2211,483,0.21845318860244234,58.27235,-134.40083,Douglas,AK,Alaska,True,,2224,472.0,2110,Juneau,{'02110':100},Juneau,02110,False,False,America/Juneau
274,58104,40200,8773,0.21823383084577114,46.79325,-96.83971,Fargo,ND,North Dakota,True,,40832,381.6,38017,Cass,{'38017':100},Cass,38017,False,False,America/Chicago
275,48864,22908,4984,0.2175659158372621,42.7013,-84.40675,Okemos,MI,Michigan,True,,23132,360.7,26065,Ingham,{'26065':100},Ingham,26065,False,False,America/Detroit
276,86023,2485,540,0.21730382293762576,36.05723,-112.07661999999999,Grand Canyon,AZ,Arizona,True,,2485,3.7,4005,Coconino,{'04005':100},Coconino,04005,False,False,America/Phoenix
277,19806,9816,2126,0.21658516707416464,39.76328,-75.56421,Wilmington,DE,Delaware,True,,9930,1914.7,10003,New Castle,{'10003':100},New Castle,10003,False,False,America/New_York
278,45226,5262,1135,0.21569745343975674,39.11128,-84.41999,Cincinnati,OH,Ohio,True,,5346,375.4,39061,Hamilton,{'39061':100},Hamilton,39061,False,False,America/New_York
279,4066,687,148,0.21542940320232898,43.77278,-69.96826999999999,Orrs Island,ME,Maine,True,,687,115.5,23005,Cumberland,{'23005':100},Cumberland,23005,False,False,America/New_York
280,31324,25323,5453,0.21533783516960867,31.8558,-81.26876,Richmond Hill,GA,Georgia,True,,25643,61.7,13029,Bryan,{'13029':100},Bryan,13029,False,False,America/New_York
281,80446,4486,966,0.21533660276415514,40.17422,-105.95253000000001,Granby,CO,Colorado,True,,4486,4.8,8049,Grand,{'08049':100},Grand,08049,False,False,America/Denver
282,85012,6940,1494,0.21527377521613833,33.50731,-112.07035,Phoenix,AZ,Arizona,True,,7012,1124.4,4013,Maricopa,{'04013':100},Maricopa,04013,False,False,America/Phoenix
283,10006,3410,734,0.21524926686217008,40.70968,-74.01284,New York,NY,New York,True,,3454,12458.3,36061,New York,{'36061':100},New York,36061,False,False,America/New_York
284,20910,42462,9124,0.21487447600207243,39.00219,-77.03635,Silver Spring,MD,Maryland,True,,42868,3180.8,24031,Montgomery,{'24031':100},Montgomery,24031,False,False,America/New_York
285,10019,43393,9289,0.21406678496531698,40.7657,-73.98706,New York,NY,New York,True,,43703,23754.2,36061,New York,{'36061':100},New York,36061,False,False,America/New_York
286,58703,22213,4750,0.21383874307837752,48.33057,-101.31555999999999,Minot,ND,North Dakota,True,,22581,46.6,38101,Ward,{'38101':100},Ward,38101,False,False,America/Chicago
287,74133,45463,9678,0.2128764049886721,36.04146,-95.87941,Tulsa,OK,Oklahoma,True,,46067,1218.3,40143,Tulsa,{'40143':100},Tulsa,40143,False,False,America/Chicago
288,23664,9625,2046,0.21257142857142858,37.07528,-76.29229000000001,Hampton,VA,Virginia,True,,9775,752.1,51650,Hampton,{'51650':100},Hampton,51650,False,False,America/New_York
289,95819,19345,4111,0.21250969242698373,38.56965,-121.4397,Sacramento,CA,California,True,,19659,1935.7,6067,Sacramento,{'06067':100},Sacramento,06067,False,False,America/Los_Angeles
290,40206,19560,4156,0.21247443762781187,38.26037,-85.70498,Louisville,KY,Kentucky,True,,19804,1270.9,21111,Jefferson,{'21111':100},Jefferson,21111,False,False,America/New_York
291,75205,24782,5261,0.21229117908159148,32.83656,-96.79623000000001,Dallas,TX,Texas,True,,24879,2046.3,48113,Dallas,{'48113':100},Dallas,48113,False,False,America/Chicago
292,92118,22247,4717,0.21202858812424147,32.67473,-117.17853999999998,Coronado,CA,California,True,,22484,1166.3,6073,San Diego,{'06073':100},San Diego,06073,False,False,America/Los_Angeles
293,30144,55097,11679,0.21197161369947548,34.03707,-84.59192,Kennesaw,GA,Georgia,True,,55820,894.2,13067,Cobb,{'13067':100},Cobb,13067,False,False,America/New_York
294,52317,19210,4070,0.2118688183237897,41.76242,-91.63101999999999,North Liberty,IA,Iowa,True,,19769,164.5,19103,Johnson,{'19103':100},Johnson,19103,False,False,America/Chicago
295,55416,31822,6742,0.21186600465087047,44.94927,-93.33884,Minneapolis,MN,Minnesota,True,,32171,1531.2,27053,Hennepin,{'27053':100},Hennepin,27053,False,False,America/Chicago
296,97202,42293,8933,0.21121698626250207,45.4829,-122.6441,Portland,OR,Oregon,True,,42822,2362.8,41051,Multnomah,"{'41005':0.45,'41051':99.55}",Multnomah|Clackamas,41051|41005,False,False,America/Los_Angeles
297,66210,18427,3890,0.21110327237206272,38.92369,-94.70493,Overland Park,KS,Kansas,True,,18691,1152.3,20091,Johnson,{'20091':100},Johnson,20091,False,False,America/Chicago
298,59808,18874,3983,0.2110310480025432,46.98298,-114.09607,Missoula,MT,Montana,True,,19018,52.7,30063,Missoula,{'30063':100},Missoula,30063,False,False,America/Denver
299,80525,53387,11259,0.2108940378743889,40.5292,-105.03706000000001,Fort Collins,CO,Colorado,True,,54286,769.2,8069,Larimer,{'08069':100},Larimer,08069,False,False,America/Denver
300,87109,39000,8224,0.21087179487179486,35.15297,-106.57541,Albuquerque,NM,New Mexico,True,,39341,1538.5,35001,Bernalillo,{'35001':100},Bernalillo,35001,False,False,America/Denver
301,94596,20636,4351,0.2108451250242295,37.88908,-122.03753999999999,Walnut Creek,CA,California,True,,20822,1298.6,6013,Contra Costa,{'06013':100},Contra Costa,06013,False,False,America/Los_Angeles
302,80224,18978,4001,0.21082305827800613,39.68768,-104.91134,Denver,CO,Colorado,True,,19253,2115.8,8031,Denver,"{'08005':0.68,'08031':99.32}",Denver|Arapahoe,08031|08005,False,False,America/Denver
303,80915,21136,4441,0.21011544284632855,38.85232,-104.7158,Colorado Springs,CO,Colorado,True,,21325,968.4,8041,El Paso,{'08041':100},El Paso,08041,False,False,America/Denver
304,31558,20929,4385,0.20951789383152564,30.81738,-81.50711,Saint Marys,GA,Georgia,True,,21307,103.5,13039,Camden,{'13039':100},Camden,13039,False,False,America/New_York
305,67735,5193,1088,0.20951280569998074,39.34596,-101.7586,Goodland,KS,Kansas,True,,5232,3.5,20181,Sherman,{'20181':100},Sherman,20181,False,False,America/Denver
306,90010,3697,774,0.20935893968082228,34.06212,-118.31621000000001,Los Angeles,CA,California,True,,3702,3208.3,6037,Los Angeles,{'06037':100},Los Angeles,06037,False,False,America/Los_Angeles
307,94117,43747,9154,0.20924863419205889,37.76975,-122.44823000000001,San Francisco,CA,California,True,,44239,8956.9,6075,San Francisco,{'06075':100},San Francisco,06075,False,False,America/Los_Angeles
308,11980,5546,1160,0.20915975477821855,40.83146,-72.92233,Yaphank,NY,New York,True,,5604,146.9,36103,Suffolk,{'36103':100},Suffolk,36103,False,False,America/New_York
309,77845,62442,13037,0.20878575317895007,30.56255,-96.27564,College Station,TX,Texas,True,,63078,128.0,48041,Brazos,{'48041':100},Brazos,48041,False,False,America/Chicago
310,98406,22815,4754,0.20837168529476222,47.26211,-122.50901,Tacoma,WA,Washington,True,,23103,1954.7,53053,Pierce,{'53053':100},Pierce,53053,False,False,America/Los_Angeles
311,55121,8492,1769,0.20831370701837024,44.84706,-93.15429,Saint Paul,MN,Minnesota,True,,8571,336.0,27037,Dakota,{'27037':100},Dakota,27037,False,False,America/Chicago
312,32541,18715,3894,0.20806839433609403,30.396990000000002,-86.47062,Destin,FL,Florida,True,,18908,517.2,12091,Okaloosa,{'12091':100},Okaloosa,12091,False,False,America/Chicago
313,98403,8089,1682,0.20793670416615156,47.26595,-122.4585,Tacoma,WA,Washington,True,,8146,2713.6,53053,Pierce,{'53053':100},Pierce,53053,False,False,America/Los_Angeles
314,20852,46457,9644,0.20758981423682116,39.05151,-77.12458000000001,Rockville,MD,Maryland,True,,46904,1871.1,24031,Montgomery,{'24031':100},Montgomery,24031,False,False,America/New_York
315,85737,21766,4518,0.2075714416980612,32.41414,-110.94663999999999,Tucson,AZ,Arizona,True,,21795,332.1,4019,Pima,{'04019':100},Pima,04019,False,False,America/Phoenix
316,32504,22828,4737,0.20750832311196776,30.48459,-87.19099,Pensacola,FL,Florida,True,,23080,773.8,12033,Escambia,{'12033':100},Escambia,12033,False,False,America/Chicago
317,80401,41876,8686,0.20742191231254178,39.716429999999995,-105.23507,Golden,CO,Colorado,True,,42169,291.4,8059,Jefferson,{'08059':100},Jefferson,08059,False,False,America/Denver
318,67226,20200,4187,0.20727722772277227,37.77329,-97.21529,Wichita,KS,Kansas,True,,20442,254.2,20173,Sedgwick,{'20173':100},Sedgwick,20173,False,False,America/Chicago
319,14618,22492,4655,0.20696247554686112,43.113,-77.55536,Rochester,NY,New York,True,,22602,914.8,36055,Monroe,{'36055':100},Monroe,36055,False,False,America/New_York
320,66223,25307,5230,0.20666218832734026,38.86282,-94.6682,Overland Park,KS,Kansas,True,,25468,1347.2,20091,Johnson,{'20091':100},Johnson,20091,False,False,America/Chicago
321,23185,47532,9803,0.20624000673230666,37.245940000000004,-76.69829,Williamsburg,VA,Virginia,True,,48036,319.7,51095,James City,"{'51036':0.12,'51095':52.51,'51199':20.13,'51830':27.24}",James City|Williamsburg|York|Charles City,51095|51830|51199|51036,False,False,America/New_York
322,33324,48187,9920,0.20586465229211198,26.11236,-80.27416,Fort Lauderdale,FL,Florida,True,,48807,1802.4,12011,Broward,{'12011':100},Broward,12011,False,False,America/New_York
323,97124,53407,10993,0.20583444117812272,45.567820000000005,-122.94646000000002,Hillsboro,OR,Oregon,True,,54101,432.3,41067,Washington,{'41067':100},Washington,41067,False,False,America/Los_Angeles
324,80526,45839,9430,0.20572002007024587,40.52425,-105.14003000000001,Fort Collins,CO,Colorado,True,,46346,447.0,8069,Larimer,{'08069':100},Larimer,08069,False,False,America/Denver
325,77586,22323,4588,0.2055279308336693,29.58435,-95.03611,Seabrook,TX,Texas,True,,22527,623.4,48201,Harris,{'48201':100},Harris,48201,False,False,America/Chicago
326,91942,39474,8111,0.20547702285048386,32.77749,-117.02166000000001,La Mesa,CA,California,True,,40205,2506.3,6073,San Diego,{'06073':100},San Diego,06073,False,False,America/Los_Angeles
327,98516,24289,4990,0.20544279303388366,47.09657,-122.7836,Olympia,WA,Washington,True,,24536,271.8,53067,Thurston,{'53067':100},Thurston,53067,False,False,America/Los_Angeles
328,29615,37356,7672,0.2053753078488061,34.85582,-82.29517,Greenville,SC,South Carolina,True,,37681,707.3,45045,Greenville,{'45045':100},Greenville,45045,False,False,America/New_York
329,98033,38609,7918,0.20508171669817918,47.67613,-122.19232,Kirkland,WA,Washington,True,,39075,1439.5,53033,King,{'53033':100},King,53033,False,False,America/Los_Angeles
330,95372,2137,438,0.20496022461394478,37.99172,-120.26083999999999,Soulsbyville,CA,California,True,,2164,283.0,6109,Tuolumne,{'06109':100},Tuolumne,06109,False,False,America/Los_Angeles
331,27612,38264,7841,0.20491846121680954,35.85333,-78.71023000000001,Raleigh,NC,North Carolina,True,,38748,720.6,37183,Wake,{'37183':100},Wake,37183,False,False,America/New_York
332,98005,18544,3794,0.20459447799827438,47.614779999999996,-122.16861999999999,Bellevue,WA,Washington,True,,18765,910.2,53033,King,{'53033':100},King,53033,False,False,America/Los_Angeles
333,78735,17798,3640,0.20451736150129227,30.2659,-97.86658,Austin,TX,Texas,True,,17923,303.1,48453,Travis,{'48453':100},Travis,48453,False,False,America/Chicago
334,85013,20775,4240,0.20409145607701565,33.51007,-112.08287,Phoenix,AZ,Arizona,True,,20902,2005.9,4013,Maricopa,{'04013':100},Maricopa,04013,False,False,America/Phoenix
335,22125,880,179,0.2034090909090909,38.68228,-77.26075,Occoquan,VA,Virginia,True,,888,1954.1,51153,Prince William,{'51153':100},Prince William,51153,False,False,America/New_York
336,78257,6276,1274,0.2029955385595921,29.66125,-98.58357,San Antonio,TX,Texas,True,,6521,39.2,48029,Bexar,{'48029':100},Bexar,48029,False,False,America/Chicago
337,78148,21371,4328,0.20251743016236956,29.5435,-98.29566,Universal City,TX,Texas,True,,21750,825.1,48029,Bexar,{'48029':100},Bexar,48029,False,False,America/Chicago
338,90254,19418,3928,0.20228653826346688,33.86546,-118.39665,Hermosa Beach,CA,California,True,,19650,5278.8,6037,Los Angeles,{'06037':100},Los Angeles,06037,False,False,America/Los_Angeles
339,80238,19611,3956,0.20172352251287543,39.7716,-104.88235,Denver,CO,Colorado,True,,19901,798.8,8031,Denver,{'08031':100},Denver,08031,False,False,America/Denver
340,73003,23751,4782,0.2013388909940634,35.66892,-97.49715,Edmond,OK,Oklahoma,True,,24147,1054.4,40109,Oklahoma,{'40109':100},Oklahoma,40109,False,False,America/Chicago
341,84045,25910,5203,0.20081049787726746,40.33845,-111.91176999999999,Saratoga Springs,UT,Utah,True,,26738,319.7,49049,Utah,{'49049':100},Utah,49049,False,False,America/Denver
342,62902,4548,911,0.20030782761653473,37.66361,-89.11726999999999,Carbondale,IL,Illinois,True,,4568,28.5,17077,Jackson,"{'17077':76.45,'17181':0.15,'17199':23.39}",Jackson|Williamson|Union,17077|17199|17181,False,False,America/Chicago
343,65804,37493,7504,0.20014402688501853,37.14924,-93.25265999999999,Springfield,MO,Missouri,True,,37766,778.9,29077,Greene,{'29077':100},Greene,29077,False,False,America/Chicago
344,78722,7042,1406,0.1996591877307583,30.28997,-97.71465,Austin,TX,Texas,True,,7110,1505.5,48453,Travis,{'48453':100},Travis,48453,False,False,America/Chicago
345,76244,76004,15164,0.19951581495710752,32.93098,-97.28435,Keller,TX,Texas,True,,76882,1353.9,48439,Tarrant,{'48439':100},Tarrant,48439,False,False,America/Chicago
346,28428,6468,1286,0.19882498453927025,34.03832,-77.90681,Carolina Beach,NC,North Carolina,True,,6533,452.8,37129,New Hanover,{'37129':100},New Hanover,37129,False,False,America/New_York
347,85377,3299,653,0.1979387693240376,33.824329999999996,-111.91526,Carefree,AZ,Arizona,True,,3299,139.1,4013,Maricopa,{'04013':100},Maricopa,04013,False,False,America/Phoenix
348,76308,18834,3726,0.19783370500159286,33.85238,-98.54057,Wichita Falls,TX,Texas,True,,19092,850.8,48485,Wichita,"{'48009':5.69,'48485':94.31}",Wichita|Archer,48485|48009,False,False,America/Chicago
349,66619,2859,564,0.19727177334732424,38.94777,-95.68819,Topeka,KS,Kansas,True,,2936,148.9,20177,Shawnee,{'20177':100},Shawnee,20177,False,False,America/Chicago
350,54703,43548,8580,0.19702397354643153,44.83443,-91.51609,Eau Claire,WI,Wisconsin,True,,44093,205.5,55035,Eau Claire,"{'55017':6.94,'55033':0.51,'55035':92.56}",Eau Claire|Chippewa|Dunn,55035|55017|55033,False,False,America/Chicago
351,92694,28493,5605,0.19671498262731196,33.54725,-117.62371999999999,Ladera Ranch,CA,California,True,,29064,892.4,6059,Orange,{'06059':100},Orange,06059,False,False,America/Los_Angeles
352,66030,23178,4559,0.1966951419449478,38.81498,-94.94124000000001,Gardner,KS,Kansas,True,,23546,170.8,20091,Johnson,{'20091':100},Johnson,20091,False,False,America/Chicago
353,83634,27075,5325,0.19667590027700832,43.452009999999994,-116.32789,Kuna,ID,Idaho,True,,27380,63.2,16001,Ada,"{'16001':97.68,'16027':2.32}",Ada|Canyon,16001|16027,False,False,America/Boise
354,58201,39520,7771,0.19663461538461538,47.8712,-97.14104,Grand Forks,ND,North Dakota,True,,39928,190.6,38035,Grand Forks,{'38035':100},Grand Forks,38035,False,False,America/Chicago
355,78231,8488,1669,0.1966305372290292,29.578059999999997,-98.54271,San Antonio,TX,Texas,True,,8536,790.0,48029,Bexar,{'48029':100},Bexar,48029,False,False,America/Chicago
356,89166,21797,4267,0.1957608845253934,36.38065,-115.50688000000001,Las Vegas,NV,Nevada,True,,22225,26.4,32003,Clark,{'32003':100},Clark,32003,False,False,America/Los_Angeles
357,92103,34365,6725,0.19569329259420923,32.74746,-117.16681000000001,San Diego,CA,California,True,,34878,3184.4,6073,San Diego,{'06073':100},San Diego,06073,False,False,America/Los_Angeles
358,32836,19893,3887,0.19539536520384054,28.41535,-81.52059,Orlando,FL,Florida,True,,20154,413.3,12095,Orange,{'12095':100},Orange,12095,False,False,America/New_York
359,32827,9364,1828,0.1952157197778727,28.41573,-81.29411,Orlando,FL,Florida,True,,9421,105.2,12095,Orange,{'12095':100},Orange,12095,False,False,America/New_York
360,11201,61713,12032,0.19496702477597913,40.69463,-73.98971999999999,Brooklyn,NY,New York,True,,62823,14028.1,36047,Kings,{'36047':100},Kings,36047,False,False,America/New_York
361,93720,46815,9116,0.19472391327565952,36.86031,-119.76156999999999,Fresno,CA,California,True,,47270,1759.5,6019,Fresno,{'06019':100},Fresno,06019,False,False,America/Los_Angeles
362,44107,49858,9695,0.19445224437402223,41.482440000000004,-81.80104,Lakewood,OH,Ohio,True,,50666,3657.9,39035,Cuyahoga,{'39035':100},Cuyahoga,39035,False,False,America/New_York
363,30350,38963,7572,0.1943382183096784,33.97914,-84.3335,Atlanta,GA,Georgia,True,,39464,1071.4,13121,Fulton,"{'13089':0.29,'13121':99.71}",Fulton|DeKalb,13121|13089,False,False,America/New_York
364,85224,43629,8462,0.1939535629970891,33.32366,-111.87643999999999,Chandler,AZ,Arizona,True,,44333,1770.7,4013,Maricopa,{'04013':100},Maricopa,04013,False,False,America/Phoenix
365,55305,20653,4004,0.19387013993124486,44.95479,-93.43235,Hopkins,MN,Minnesota,True,,20818,803.8,27053,Hennepin,{'27053':100},Hennepin,27053,False,False,America/Chicago
366,96738,6593,1278,0.19384195358713788,19.90916,-155.7842,Waikoloa,HI,Hawaii,True,,6728,28.5,15001,Hawaii,{'15001':100},Hawaii,15001,False,False,Pacific/Honolulu
367,32606,23589,4553,0.19301369282292594,29.68415,-82.44435,Gainesville,FL,Florida,True,,23766,493.5,12001,Alachua,{'12001':100},Alachua,12001,False,False,America/New_York
368,74055,44802,8647,0.19300477657247445,36.27843,-95.81893000000001,Owasso,OK,Oklahoma,True,,45378,292.4,40143,Tulsa,"{'40131':28.82,'40143':71.18}",Tulsa|Rogers,40143|40131,False,False,America/Chicago
369,46617,9338,1802,0.19297494110087812,41.68444,-86.23483,South Bend,IN,Indiana,True,,9422,1427.6,18141,St. Joseph,{'18141':100},St. Joseph,18141,False,False,America/Indiana/Indianapolis
370,85748,18092,3490,0.1929029405261994,32.218959999999996,-110.75198,Tucson,AZ,Arizona,True,,18372,590.5,4019,Pima,{'04019':100},Pima,04019,False,False,America/Phoenix
371,33647,67121,12946,0.19287555310558543,28.13415,-82.35798,Tampa,FL,Florida,True,,67730,626.2,12057,Hillsborough,{'12057':100},Hillsborough,12057,False,False,America/New_York
372,97219,42275,8151,0.19280898876404495,45.453959999999995,-122.69981999999999,Portland,OR,Oregon,True,,42813,1270.3,41051,Multnomah,"{'41005':2.63,'41051':97.37}",Multnomah|Clackamas,41051|41005,False,False,America/Los_Angeles
373,98034,42660,8224,0.19278012189404595,47.71578,-122.21582,Kirkland,WA,Washington,True,,43119,1722.4,53033,King,{'53033':100},King,53033,False,False,America/Los_Angeles
374,65203,57187,11021,0.19271862486229388,38.88518,-92.397,Columbia,MO,Missouri,True,,57788,266.1,29019,Boone,{'29019':100},Boone,29019,False,False,America/Chicago
375,77554,8711,1678,0.19263000803581679,29.24558,-94.92353,Galveston,TX,Texas,True,,8769,96.9,48167,Galveston,{'48167':100},Galveston,48167,False,False,America/Chicago
376,84105,22086,4250,0.19242959340758853,40.73826,-111.85954,Salt Lake City,UT,Utah,True,,22477,2809.3,49035,Salt Lake,{'49035':100},Salt Lake,49035,False,False,America/Denver
377,46032,48363,9295,0.1921923784711453,39.96583,-86.17108,Carmel,IN,Indiana,True,,48853,631.6,18057,Hamilton,{'18057':100},Hamilton,18057,False,False,America/Indiana/Indianapolis
378,81435,5214,1001,0.19198312236286919,37.90381,-107.86951,Telluride,CO,Colorado,True,,5278,14.3,8113,San Miguel,{'08113':100},San Miguel,08113,False,False,America/Denver
379,39540,8864,1699,0.19167418772563177,30.44173,-88.89903000000001,Diberville,MS,Mississippi,True,,8895,713.5,28047,Harrison,{'28047':100},Harrison,28047,False,False,America/Chicago
380,80235,8633,1647,0.1907795667786401,39.6461,-105.08993000000001,Denver,CO,Colorado,True,,8742,801.5,8059,Jefferson,"{'08031':43.73,'08059':56.27}",Jefferson|Denver,08059|08031,False,False,America/Denver
381,82718,26011,4959,0.19065010956902848,43.881240000000005,-105.61308000000001,Gillette,WY,Wyoming,True,,26340,4.7,56005,Campbell,{'56005':100},Campbell,56005,False,False,America/Denver
382,12084,4869,926,0.19018278907373176,42.704190000000004,-73.90089,Guilderland,NY,New York,True,,4959,457.2,36001,Albany,{'36001':100},Albany,36001,False,False,America/New_York
383,59330,8567,1627,0.18991478930780903,47.09686,-104.75105,Glendive,MT,Montana,True,,8628,2.6,30021,Dawson,"{'30021':99.58,'30079':0.42}",Dawson|Prairie,30021|30079,False,False,America/Denver
384,94568,53597,10136,0.18911506241020953,37.71525,-121.91467,Dublin,CA,California,True,,54420,1162.1,6001,Alameda,{'06001':100},Alameda,06001,False,False,America/Los_Angeles
385,22939,5959,1126,0.18895787883873133,38.106,-78.97414,Fishersville,VA,Virginia,True,,5983,124.8,51015,Augusta,{'51015':100},Augusta,51015,False,False,America/New_York
386,94703,21729,4104,0.18887201435869114,37.863890000000005,-122.27564,Berkeley,CA,California,True,,21937,5734.2,6001,Alameda,{'06001':100},Alameda,06001,False,False,America/Los_Angeles
387,14228,21866,4127,0.18874051038141407,43.04092,-78.78121,Buffalo,NY,New York,True,,22103,509.2,36029,Erie,{'36029':100},Erie,36029,False,False,America/New_York
388,80023,21209,4002,0.18869347918336554,39.97242,-105.01093999999999,Broomfield,CO,Colorado,True,,21368,338.1,8014,Broomfield,"{'08001':13.49,'08014':86.51}",Broomfield|Adams,08014|08001,False,False,America/Denver
389,74037,18127,3418,0.18855850388922601,36.00186,-95.97828,Jenks,OK,Oklahoma,True,,18419,404.9,40143,Tulsa,{'40143':100},Tulsa,40143,False,False,America/Chicago
390,97405,45934,8661,0.18855314146383942,43.93976,-123.19158,Eugene,OR,Oregon,True,,46270,113.4,41039,Lane,{'41039':100},Lane,41039,False,False,America/Los_Angeles
391,97701,67561,12720,0.18827430026198547,44.014829999999996,-121.33107,Bend,OR,Oregon,True,,68204,33.6,41017,Deschutes,"{'41013':0.1,'41017':99.9}",Deschutes|Crook,41017|41013,False,False,America/Los_Angeles
392,20171,49773,9357,0.1879934904466277,38.92364,-77.39828,Herndon,VA,Virginia,True,,50342,1463.3,51059,Fairfax,{'51059':100},Fairfax,51059,False,False,America/New_York
393,8540,48749,9153,0.1877576975937968,40.3633,-74.65568,Princeton,NJ,New Jersey,True,,48968,350.4,34021,Mercer,"{'34021':70.46,'34023':13.56,'34035':15.98}",Mercer|Somerset|Middlesex,34021|34035|34023,False,False,America/New_York
394,29482,2108,395,0.18738140417457305,32.76856,-79.83545,Sullivans Island,SC,South Carolina,True,,2148,268.7,45019,Charleston,{'45019':100},Charleston,45019,False,False,America/New_York
395,78258,45838,8584,0.1872682054190846,29.6337,-98.49605,San Antonio,TX,Texas,True,,46418,987.2,48029,Bexar,{'48029':100},Bexar,48029,False,False,America/Chicago
396,3860,4369,817,0.18699931334401465,44.04205,-71.11989,North Conway,NH,New Hampshire,True,,4395,77.9,33003,Carroll,{'33003':100},Carroll,33003,False,False,America/New_York
397,94925,9777,1826,0.18676485629538714,37.923759999999994,-122.5128,Corte Madera,CA,California,True,,9866,1129.3,6041,Marin,{'06041':100},Marin,06041,False,False,America/Los_Angeles
398,6279,5824,1087,0.18664148351648352,41.889559999999996,-72.25936,Willington,CT,Connecticut,True,,5912,70.1,9013,Tolland,{'09013':100},Tolland,09013,False,False,America/New_York
399,19382,54029,10081,0.18658498213922153,39.928090000000005,-75.61231,West Chester,PA,Pennsylvania,True,,54460,437.0,42029,Chester,"{'42029':98.27,'42045':1.73}",Chester|Delaware,42029|42045,False,False,America/New_York
400,27713,53490,9972,0.18642736960179473,35.89496,-78.92368,Durham,NC,North Carolina,True,,54621,552.7,37063,Durham,"{'37037':1.5,'37063':98.5}",Durham|Chatham,37063|37037,False,False,America/New_York
401,53226,18669,3479,0.18635170603674542,43.049479999999996,-88.04216,Milwaukee,WI,Wisconsin,True,,18907,1031.9,55079,Milwaukee,{'55079':100},Milwaukee,55079,False,False,America/Chicago
402,12561,18612,3462,0.18600902643455836,41.754979999999996,-74.09753,New Paltz,NY,New York,True,,18731,118.8,36111,Ulster,{'36111':100},Ulster,36111,False,False,America/New_York
403,66211,4714,875,0.18561731014000848,38.92358,-94.63686,Leawood,KS,Kansas,True,,4731,370.9,20091,Johnson,{'20091':100},Johnson,20091,False,False,America/Chicago
404,37043,46756,8674,0.18551629737359912,36.495779999999996,-87.23241999999999,Clarksville,TN,Tennessee,True,,47576,137.5,47125,Montgomery,"{'47021':0.48,'47125':99.52}",Montgomery|Cheatham,47125|47021,False,False,America/Chicago
405,22030,58851,10917,0.18550237039302644,38.8394,-77.34173,Fairfax,VA,Virginia,True,,59466,1126.3,51059,Fairfax,"{'51059':68.17,'51600':31.83}",Fairfax|Fairfax,51059|51600,False,False,America/New_York
406,20850,51050,9469,0.18548481880509304,39.09129,-77.18086,Rockville,MD,Maryland,True,,51568,1268.5,24031,Montgomery,{'24031':100},Montgomery,24031,False,False,America/New_York
407,72223,23403,4336,0.18527539204375507,34.788340000000005,-92.51096,Little Rock,AR,Arkansas,True,,23574,129.7,5119,Pulaski,{'05119':100},Pulaski,05119,False,False,America/Chicago
408,39096,1852,342,0.18466522678185746,31.82548,-91.11572,Lorman,MS,Mississippi,True,,1887,4.6,28021,Claiborne,"{'28021':56.03,'28063':43.97}",Claiborne|Jefferson,28021|28063,False,False,America/Chicago
409,76712,25140,4642,0.18464598249801115,31.524009999999997,-97.25565,Woodway,TX,Texas,True,,25503,180.3,48309,McLennan,{'48309':100},McLennan,48309,False,False,America/Chicago
410,89123,59781,11034,0.18457369398303808,36.03525,-115.1487,Las Vegas,NV,Nevada,True,,60138,2040.1,32003,Clark,{'32003':100},Clark,32003,False,False,America/Los_Angeles
411,80016,54192,9983,0.18421538234425747,39.59959,-104.70626,Aurora,CO,Colorado,True,,54651,338.5,8005,Arapahoe,"{'08005':99.72,'08035':0.28}",Arapahoe|Douglas,08005|08035,False,False,America/Denver
412,89084,26802,4937,0.18420267144242966,36.29691,-115.17408999999999,North Las Vegas,NV,Nevada,True,,27218,769.8,32003,Clark,{'32003':100},Clark,32003,False,False,America/Los_Angeles
413,21017,6494,1196,0.18417000307976594,39.47622,-76.23691,Belcamp,MD,Maryland,True,,6597,992.1,24025,Harford,{'24025':100},Harford,24025,False,False,America/New_York
414,98115,52872,9728,0.18399152670600696,47.685,-122.28216,Seattle,WA,Washington,True,,53431,2708.9,53033,King,{'53033':100},King,53033,False,False,America/Los_Angeles
415,78759,42059,7733,0.18386076701776077,30.40268,-97.76105,Austin,TX,Texas,True,,42524,1079.0,48453,Travis,"{'48453':99.22,'48491':0.78}",Travis|Williamson,48453|48491,False,False,America/Chicago
416,45208,18149,3325,0.18320568626370598,39.13474,-84.43445,Cincinnati,OH,Ohio,True,,18503,1602.0,39061,Hamilton,{'39061':100},Hamilton,39061,False,False,America/New_York
417,94115,34611,6330,0.18288983271214354,37.78597,-122.43718999999999,San Francisco,CA,California,True,,35004,11426.7,6075,San Francisco,{'06075':100},San Francisco,06075,False,False,America/Los_Angeles
418,22554,55259,10089,0.18257659385801409,38.42691,-77.37803000000001,Stafford,VA,Virginia,True,,56016,299.3,51179,Stafford,{'51179':100},Stafford,51179,False,False,America/New_York
419,37128,50431,9204,0.18250679145763518,35.79916,-86.47278,Murfreesboro,TN,Tennessee,True,,51021,279.0,47149,Rutherford,{'47149':100},Rutherford,47149,False,False,America/Chicago
420,96741,6129,1117,0.18224832762277696,21.955779999999997,-159.51629,Kalaheo,HI,Hawaii,True,,6284,83.1,15007,Kauai,{'15007':100},Kauai,15007,False,False,Pacific/Honolulu
421,91367,44745,8143,0.18198681416918092,34.17705,-118.61531000000001,Woodland Hills,CA,California,True,,45282,2052.4,6037,Los Angeles,{'06037':100},Los Angeles,06037,False,False,America/Los_Angeles
422,66611,9936,1808,0.1819645732689211,39.015440000000005,-95.69613000000001,Topeka,KS,Kansas,True,,10076,1117.1,20177,Shawnee,{'20177':100},Shawnee,20177,False,False,America/Chicago
423,99354,22770,4142,0.18190601668862538,46.32566,-119.3067,Richland,WA,Washington,True,,22988,406.4,53005,Benton,{'53005':100},Benton,53005,False,False,America/Los_Angeles
424,92037,39273,7143,0.18188068138415706,32.855059999999995,-117.25012,La Jolla,CA,California,True,,39724,1382.3,6073,San Diego,{'06073':100},San Diego,06073,False,False,America/Los_Angeles
425,64156,7817,1421,0.18178329282333375,39.27942,-94.52417,Kansas City,MO,Missouri,True,,7935,147.5,29047,Clay,{'29047':100},Clay,29047,False,False,America/Chicago
426,57106,45735,8309,0.18167705258554717,43.51054,-96.83901,Sioux Falls,SD,South Dakota,True,,46442,510.7,46099,Minnehaha,"{'46083':14.45,'46099':85.55}",Minnehaha|Lincoln,46099|46083,False,False,America/Chicago
427,15629,783,142,0.18135376756066413,40.59726,-79.56317,East Vandergrift,PA,Pennsylvania,True,,798,2033.1,42129,Westmoreland,{'42129':100},Westmoreland,42129,False,False,America/New_York
428,38119,22829,4138,0.18126067720881336,35.07978,-89.84589,Memphis,TN,Tennessee,True,,22947,975.6,47157,Shelby,{'47157':100},Shelby,47157,False,False,America/Chicago
429,23454,58910,10678,0.18125954846375827,36.82643,-76.02463,Virginia Beach,VA,Virginia,True,,59699,773.8,51810,Virginia Beach,{'51810':100},Virginia Beach,51810,False,False,America/New_York
430,72034,49596,8989,0.18124445519799984,35.05041,-92.48685,Conway,AR,Arkansas,True,,50137,307.5,5045,Faulkner,{'05045':100},Faulkner,05045,False,False,America/Chicago
431,84054,19680,3563,0.1810467479674797,40.84114,-111.91696,North Salt Lake,UT,Utah,True,,20005,745.7,49011,Davis,{'49011':100},Davis,49011,False,False,America/Denver
432,27513,44379,8023,0.18078370400414612,35.80223,-78.8027,Cary,NC,North Carolina,True,,44821,995.7,37183,Wake,{'37183':100},Wake,37183,False,False,America/New_York
433,98275,21181,3829,0.18077522307728625,47.91321,-122.29926,Mukilteo,WA,Washington,True,,21264,1031.1,53061,Snohomish,{'53061':100},Snohomish,53061,False,False,America/Los_Angeles
434,80829,5794,1047,0.180704176734553,38.82806,-104.9358,Manitou Springs,CO,Colorado,True,,5794,98.1,8041,El Paso,{'08041':100},El Paso,08041,False,False,America/Denver
435,10016,50633,9142,0.18055418403017795,40.74517,-73.97834,New York,NY,New York,True,,51057,39315.3,36061,New York,{'36061':100},New York,36061,False,False,America/New_York
436,57105,22148,3984,0.17988080187827343,43.52065,-96.73534000000001,Sioux Falls,SD,South Dakota,True,,22501,1231.8,46099,Minnehaha,{'46099':100},Minnehaha,46099,False,False,America/Chicago
437,62220,18158,3260,0.17953519110034144,38.47337,-89.98652,Belleville,IL,Illinois,True,,18302,270.4,17163,St. Clair,{'17163':100},St. Clair,17163,False,False,America/Chicago
438,35242,54638,9809,0.17952706907280647,33.42521,-86.67144,Birmingham,AL,Alabama,True,,55122,361.7,1117,Shelby,"{'01073':11.74,'01117':88.26}",Shelby|Jefferson,01117|01073,False,False,America/Chicago
439,19711,51665,9274,0.17950256459885802,39.714290000000005,-75.73966,Newark,DE,Delaware,True,,52033,723.6,10003,New Castle,{'10003':100},New Castle,10003,False,False,America/New_York
440,46383,41438,7438,0.17949707997490227,41.459140000000005,-87.00339,Valparaiso,IN,Indiana,True,,41698,175.7,18127,Porter,{'18127':100},Porter,18127,False,False,America/Chicago
441,68510,21364,3833,0.1794139674218311,40.80653,-96.63596,Lincoln,NE,Nebraska,True,,21765,1361.6,31109,Lancaster,{'31109':100},Lancaster,31109,False,False,America/Chicago
442,79424,45247,8074,0.17844276968638806,33.46993,-101.94095,Lubbock,TX,Texas,True,,46174,360.9,48303,Lubbock,{'48303':100},Lubbock,48303,False,False,America/Chicago
443,80134,66044,11785,0.17844164496396342,39.48222,-104.77885,Parker,CO,Colorado,True,,66679,377.7,8035,Douglas,{'08035':100},Douglas,08035,False,False,America/Denver
444,92130,54653,9752,0.17843485261559291,32.947590000000005,-117.20741000000001,San Diego,CA,California,True,,55316,1024.9,6073,San Diego,{'06073':100},San Diego,06073,False,False,America/Los_Angeles
445,43230,57536,10266,0.17842741935483872,40.03559,-82.86986999999999,Columbus,OH,Ohio,True,,58167,943.6,39049,Franklin,{'39049':100},Franklin,39049,False,False,America/New_York
446,29464,50613,9028,0.17837314523936537,32.820370000000004,-79.85636,Mount Pleasant,SC,South Carolina,True,,51379,566.3,45019,Charleston,{'45019':100},Charleston,45019,False,False,America/New_York
447,90049,36612,6529,0.1783295094504534,34.08719,-118.48926000000002,Los Angeles,CA,California,True,,36964,912.1,6037,Los Angeles,{'06037':100},Los Angeles,06037,False,False,America/Los_Angeles
448,12208,21740,3876,0.17828886844526218,42.65331,-73.81021,Albany,NY,New York,True,,21896,1904.7,36001,Albany,{'36001':100},Albany,36001,False,False,America/New_York
449,97702,47264,8414,0.17802132701421802,43.99865,-121.24359,Bend,OR,Oregon,True,,47672,191.2,41017,Deschutes,{'41017':100},Deschutes,41017,False,False,America/Los_Angeles
450,28207,9479,1685,0.17776136723283048,35.195159999999994,-80.82618000000001,Charlotte,NC,North Carolina,True,,9539,1423.1,37119,Mecklenburg,{'37119':100},Mecklenburg,37119,False,False,America/New_York
451,99515,23113,4108,0.17773547354302774,61.11739,-149.88889,Anchorage,AK,Alaska,True,,23402,818.8,2020,Anchorage,{'02020':100},Anchorage,02020,False,False,America/Anchorage
452,1581,18736,3329,0.1776793339026473,42.268159999999995,-71.61402,Westborough,MA,Massachusetts,True,,18982,342.4,25027,Worcester,{'25027':100},Worcester,25027,False,False,America/New_York
453,8801,8933,1586,0.17754393820664952,40.6239,-74.88659,Annandale,NJ,New Jersey,True,,8990,202.6,34019,Hunterdon,{'34019':100},Hunterdon,34019,False,False,America/New_York
454,99577,27860,4941,0.17735104091888013,61.19692,-149.24656000000002,Eagle River,AK,Alaska,True,,28308,46.3,2020,Anchorage,{'02020':100},Anchorage,02020,False,False,America/Anchorage
455,10024,58086,10295,0.1772372000137727,40.79227,-73.97482,New York,NY,New York,True,,59001,26672.3,36061,New York,{'36061':100},New York,36061,False,False,America/New_York
456,95971,6221,1102,0.17714193859508118,39.93721,-120.90026999999999,Quincy,CA,California,True,,6254,22.8,6063,Plumas,{'06063':100},Plumas,06063,False,False,America/Los_Angeles
457,85255,41450,7338,0.17703256936067552,33.68316,-111.82108999999998,Scottsdale,AZ,Arizona,True,,41625,164.3,4013,Maricopa,{'04013':100},Maricopa,04013,False,False,America/Phoenix
458,78730,9114,1612,0.17687074829931973,30.364890000000003,-97.83731,Austin,TX,Texas,True,,9186,210.7,48453,Travis,{'48453':100},Travis,48453,False,False,America/Chicago
459,32828,65047,11501,0.17681061386382155,28.52825,-81.16717,Orlando,FL,Florida,True,,65665,1046.6,12095,Orange,{'12095':100},Orange,12095,False,False,America/New_York
460,85259,23023,4066,0.1766060026929592,33.60113,-111.80949,Scottsdale,AZ,Arizona,True,,23124,403.8,4013,Maricopa,{'04013':100},Maricopa,04013,False,False,America/Phoenix
461,29229,50016,8831,0.17656349968010238,34.13882,-80.88920999999999,Columbia,SC,South Carolina,True,,50866,830.8,45079,Richland,{'45079':100},Richland,45079,False,False,America/New_York
462,20874,60290,10644,0.17654669099353126,39.12972,-77.2975,Germantown,MD,Maryland,True,,61045,1040.1,24031,Montgomery,{'24031':100},Montgomery,24031,False,False,America/New_York
463,33042,6518,1150,0.17643448910708806,24.67645,-81.50992,Summerland Key,FL,Florida,True,,6524,88.2,12087,Monroe,{'12087':100},Monroe,12087,False,False,America/New_York
464,98092,45299,7978,0.17611867811651472,47.28765,-122.12876999999999,Auburn,WA,Washington,True,,45739,345.6,53033,King,"{'53033':82.57,'53053':17.43}",King|Pierce,53033|53053,False,False,America/Los_Angeles
465,21044,43750,7686,0.17568,39.21033,-76.88381,Columbia,MD,Maryland,True,,44034,1342.0,24027,Howard,{'24027':100},Howard,24027,False,False,America/New_York
466,32410,984,172,0.17479674796747968,29.994259999999997,-85.41821999999999,Mexico Beach,FL,Florida,True,,987,14.2,12005,Bay,{'12005':100},Bay,12005,False,False,America/Chicago
467,8809,5960,1040,0.174496644295302,40.65124,-74.92234,Clinton,NJ,New Jersey,True,,6013,386.1,34019,Hunterdon,{'34019':100},Hunterdon,34019,False,False,America/New_York
468,75024,42460,7408,0.17447008949599624,33.07735,-96.80704,Plano,TX,Texas,True,,42876,1098.1,48085,Collin,"{'48085':94.2,'48121':5.8}",Collin|Denton,48085|48121,False,False,America/Chicago
469,43002,3703,646,0.17445314609775858,40.06333,-83.1739,Amlin,OH,Ohio,True,,3744,872.4,39049,Franklin,{'39049':100},Franklin,39049,False,False,America/New_York
470,79911,5540,965,0.17418772563176896,31.892459999999996,-106.54251000000001,El Paso,TX,Texas,True,,5732,96.9,48141,El Paso,{'48141':100},El Paso,48141,False,False,America/Denver
471,90046,50266,8739,0.17385509091632514,34.10747,-118.36528,Los Angeles,CA,California,True,,50587,3242.8,6037,Los Angeles,{'06037':100},Los Angeles,06037,False,False,America/Los_Angeles
472,10128,58419,10156,0.1738475495985895,40.78138,-73.95015,New York,NY,New York,True,,59256,50118.8,36061,New York,{'36061':100},New York,36061,False,False,America/New_York
473,98501,41374,7184,0.17363561657079324,46.979009999999995,-122.87088999999999,Olympia,WA,Washington,True,,41669,427.5,53067,Thurston,{'53067':100},Thurston,53067,False,False,America/Los_Angeles
474,1240,4441,771,0.1736095473992344,42.37208,-73.27646,Lenox,MA,Massachusetts,True,,4441,81.9,25003,Berkshire,{'25003':100},Berkshire,25003,False,False,America/New_York
475,6905,20191,3503,0.17349314050814718,41.088809999999995,-73.54349,Stamford,CT,Connecticut,True,,20493,1527.4,9001,Fairfield,{'09001':100},Fairfield,09001,False,False,America/New_York
476,96712,7488,1298,0.1733440170940171,21.62925,-158.04855,Haleiwa,HI,Hawaii,True,,7575,137.1,15003,Honolulu,{'15003':100},Honolulu,15003,False,False,Pacific/Honolulu
477,99705,22606,3915,0.17318411041316464,64.76238000000001,-147.31214,North Pole,AK,Alaska,True,,22944,81.3,2090,Fairbanks North Star,{'02090':100},Fairbanks North Star,02090,False,False,America/Anchorage
478,5403,18497,3199,0.17294696437260096,44.44697,-73.17235,South Burlington,VT,Vermont,True,,18695,414.2,50007,Chittenden,{'50007':100},Chittenden,50007,False,False,America/New_York
479,66025,7743,1339,0.17293038873821517,38.89755,-95.08854000000001,Eudora,KS,Kansas,True,,7906,45.5,20045,Douglas,"{'20045':97.61,'20091':2.39}",Douglas|Johnson,20045|20091,False,False,America/Chicago
480,98012,63484,10976,0.17289395753260664,47.84151,-122.19908999999998,Bothell,WA,Washington,True,,64417,1289.5,53061,Snohomish,{'53061':100},Snohomish,53061,False,False,America/Los_Angeles
481,53711,48710,8421,0.17288031205091356,43.015029999999996,-89.40921999999999,Madison,WI,Wisconsin,True,,49660,692.0,55025,Dane,{'55025':100},Dane,55025,False,False,America/Chicago
482,10280,9234,1596,0.1728395061728395,40.71025,-74.01671999999999,New York,NY,New York,True,,9384,26417.5,36061,New York,{'36061':100},New York,36061,False,False,America/New_York
483,7756,3118,538,0.1725465041693393,40.2119,-74.00779,Ocean Grove,NJ,New Jersey,True,,3133,3479.0,34025,Monmouth,{'34025':100},Monmouth,34025,False,False,America/New_York
484,81657,5842,1007,0.17237247517973298,39.6512,-106.32342,Vail,CO,Colorado,True,,5850,19.4,8037,Eagle,{'08037':100},Eagle,08037,False,False,America/Denver
485,29485,56381,9707,0.1721679289122222,32.95261,-80.19351,Summerville,SC,South Carolina,True,,57000,487.4,45035,Dorchester,"{'45019':6.57,'45035':93.43}",Dorchester|Charleston,45035|45019,False,False,America/New_York
486,23464,75257,12950,0.17207701609152637,36.79724,-76.17922,Virginia Beach,VA,Virginia,True,,76495,1690.2,51810,Virginia Beach,{'51810':100},Virginia Beach,51810,False,False,America/New_York
487,53167,850,146,0.17176470588235293,42.74127,-88.22524,Rochester,WI,Wisconsin,True,,909,721.5,55101,Racine,{'55101':100},Racine,55101,False,False,America/Chicago
488,10022,30859,5300,0.17174892251855212,40.75863,-73.96786999999999,New York,NY,New York,True,,31125,28833.9,36061,New York,{'36061':100},New York,36061,False,False,America/New_York
489,23314,8564,1470,0.17164876226062586,36.9507,-76.5357,Carrollton,VA,Virginia,True,,8593,140.8,51093,Isle of Wight,{'51093':100},Isle of Wight,51093,False,False,America/New_York
490,19128,37659,6463,0.17161900209777212,40.04887,-75.22904,Philadelphia,PA,Pennsylvania,True,,38309,1928.3,42101,Philadelphia,{'42101':100},Philadelphia,42101,False,False,America/New_York
491,72116,22047,3781,0.17149725586247563,34.80048,-92.24492,North Little Rock,AR,Arkansas,True,,22337,1241.1,5119,Pulaski,{'05119':100},Pulaski,05119,False,False,America/Chicago
492,75703,41178,7061,0.17147505949779007,32.23855,-95.32063000000001,Tyler,TX,Texas,True,,41842,264.5,48423,Smith,{'48423':100},Smith,48423,False,False,America/Chicago
493,7921,7536,1291,0.17131104033970276,40.65697,-74.67751,Bedminster,NJ,New Jersey,True,,7651,154.4,34035,Somerset,{'34035':100},Somerset,34035,False,False,America/New_York
494,84097,21436,3672,0.17130061578652733,40.304829999999995,-111.67312,Orem,UT,Utah,True,,21674,1370.2,49049,Utah,{'49049':100},Utah,49049,False,False,America/Denver
495,63141,20228,3465,0.17129721178564367,38.65829,-90.45818,Saint Louis,MO,Missouri,True,,20550,564.0,29189,St. Louis,{'29189':100},St. Louis,29189,False,False,America/Chicago
496,85308,65558,11221,0.171161414320144,33.660509999999995,-112.18462,Glendale,AZ,Arizona,True,,66057,1444.0,4013,Maricopa,{'04013':100},Maricopa,04013,False,False,America/Phoenix
497,78259,26210,4480,0.170927127050744,29.6263,-98.42781,San Antonio,TX,Texas,True,,26508,634.2,48029,Bexar,{'48029':100},Bexar,48029,False,False,America/Chicago
498,43054,26741,4569,0.17086122433716017,40.08084,-82.80348000000001,New Albany,OH,Ohio,True,,26953,396.2,39049,Franklin,{'39049':100},Franklin,39049,False,False,America/New_York
499,30328,36720,6273,0.17083333333333334,33.93215,-84.38576,Atlanta,GA,Georgia,True,,37111,906.6,13121,Fulton,{'13121':100},Fulton,13121,False,False,America/New_York
500,92592,83444,14249,0.17076122908777144,33.51108,-117.03087,Temecula,CA,California,True,,84418,287.9,6065,Riverside,{'06065':100},Riverside,06065,False,False,America/Los_Angeles
501,10004,3010,513,0.17043189368770764,40.69465,-74.02105999999999,New York,NY,New York,True,,3028,2214.8,36061,New York,{'36061':100},New York,36061,False,False,America/New_York
502,32266,7016,1195,0.17032497149372863,30.31645,-81.41176999999999,Neptune Beach,FL,Florida,True,,7080,1162.6,12031,Duval,{'12031':100},Duval,12031,False,False,America/New_York
503,15351,640,109,0.1703125,39.88091,-79.92801999999999,Nemacolin,PA,Pennsylvania,True,,640,318.8,42059,Greene,{'42059':100},Greene,42059,False,False,America/New_York
504,48103,54923,9352,0.1702747482839612,42.25991,-83.84324000000001,Ann Arbor,MI,Michigan,True,,55403,314.8,26161,Washtenaw,{'26161':100},Washtenaw,26161,False,False,America/Detroit
505,94403,43808,7458,0.17024287801314827,37.538470000000004,-122.30452,San Mateo,CA,California,True,,44300,2718.0,6081,San Mateo,{'06081':100},San Mateo,06081,False,False,America/Los_Angeles
506,92128,50335,8563,0.17012019469553988,32.99935,-117.07179,San Diego,CA,California,True,,51066,1638.9,6073,San Diego,{'06073':100},San Diego,06073,False,False,America/Los_Angeles
507,80123,45975,7815,0.1699836867862969,39.615829999999995,-105.06884,Littleton,CO,Colorado,True,,46586,1457.8,8059,Jefferson,"{'08005':24.36,'08031':26.72,'08059':48.92}",Jefferson|Denver|Arapahoe,08059|08031|08005,False,False,America/Denver
508,68516,44068,7488,0.16991921575746574,40.73488,-96.64258000000001,Lincoln,NE,Nebraska,True,,44460,790.4,31109,Lancaster,{'31109':100},Lancaster,31109,False,False,America/Chicago
509,43235,42177,7160,0.16976077008796264,40.10264,-83.0524,Columbus,OH,Ohio,True,,42673,1101.5,39049,Franklin,{'39049':100},Franklin,39049,False,False,America/New_York
510,55901,54075,9173,0.1696347665279704,44.06977,-92.50688000000001,Rochester,MN,Minnesota,True,,54721,671.0,27109,Olmsted,{'27109':100},Olmsted,27109,False,False,America/Chicago
511,97413,955,162,0.16963350785340314,44.100590000000004,-122.02806000000001,Blue River,OR,Oregon,True,,955,0.7,41039,Lane,"{'41039':99.34,'41043':0.66}",Lane|Linn,41039|41043,False,False,America/Los_Angeles
512,63144,8495,1441,0.1696291936433196,38.61909,-90.34765,Saint Louis,MO,Missouri,True,,8725,1456.6,29189,St. Louis,{'29189':100},St. Louis,29189,False,False,America/Chicago
513,99502,24356,4123,0.1692806700607653,61.1633,-149.98644,Anchorage,AK,Alaska,True,,24671,529.2,2020,Anchorage,{'02020':100},Anchorage,02020,False,False,America/Anchorage
514,55446,24170,4089,0.16917666528754655,45.04404,-93.48756,Minneapolis,MN,Minnesota,True,,24473,709.8,27053,Hennepin,{'27053':100},Hennepin,27053,False,False,America/Chicago
515,39211,24319,4110,0.16900365968995434,32.37175,-90.12222,Jackson,MS,Mississippi,True,,24628,770.5,28049,Hinds,{'28049':100},Hinds,28049,False,False,America/Chicago
516,68856,675,114,0.1688888888888889,41.495870000000004,-99.82745,Merna,NE,Nebraska,True,,685,2.1,31041,Custer,{'31041':100},Custer,31041,False,False,America/Chicago
517,85747,25200,4254,0.1688095238095238,32.09498,-110.76536999999999,Tucson,AZ,Arizona,True,,25777,150.9,4019,Pima,{'04019':100},Pima,04019,False,False,America/Phoenix
518,43081,60797,10261,0.1687747750711384,40.110640000000004,-82.89134,Westerville,OH,Ohio,True,,61572,876.2,39049,Franklin,{'39049':100},Franklin,39049,False,False,America/New_York
519,12866,38904,6563,0.1686973061895949,43.07079,-73.74081,Saratoga Springs,NY,New York,True,,39178,212.7,36091,Saratoga,{'36091':100},Saratoga,36091,False,False,America/New_York
520,95010,8859,1493,0.1685291793656169,36.97722,-121.95478,Capitola,CA,California,True,,9030,2570.5,6087,Santa Cruz,{'06087':100},Santa Cruz,06087,False,False,America/Los_Angeles
521,64158,4981,839,0.16844007227464364,39.23531,-94.48314,Kansas City,MO,Missouri,True,,5041,657.8,29047,Clay,{'29047':100},Clay,29047,False,False,America/Chicago
522,75056,58627,9865,0.1682671806505535,33.07395,-96.91483000000001,The Colony,TX,Texas,True,,59211,731.4,48121,Denton,{'48121':100},Denton,48121,False,False,America/Chicago
523,28277,70888,11924,0.16820900575555806,35.05237,-80.81752,Charlotte,NC,North Carolina,True,,71605,984.4,37119,Mecklenburg,{'37119':100},Mecklenburg,37119,False,False,America/New_York
524,84049,5387,904,0.1678113978095415,40.524809999999995,-111.50985,Midway,UT,Utah,True,,5442,20.2,49051,Wasatch,{'49051':100},Wasatch,49051,False,False,America/Denver
525,45440,20441,3427,0.16765324592730296,39.67399,-84.09861,Dayton,OH,Ohio,True,,20633,850.2,39113,Montgomery,"{'39057':41.92,'39113':58.08}",Montgomery|Greene,39113|39057,False,False,America/New_York
526,85306,24921,4177,0.16760964648288593,33.623940000000005,-112.17638999999998,Glendale,AZ,Arizona,True,,25206,1666.4,4013,Maricopa,{'04013':100},Maricopa,04013,False,False,America/Phoenix
527,28278,26750,4481,0.16751401869158877,35.1296,-81.00789,Charlotte,NC,North Carolina,True,,27286,261.4,37119,Mecklenburg,{'37119':100},Mecklenburg,37119,False,False,America/New_York
528,28803,33623,5628,0.16738542069416767,35.52962,-82.52001,Asheville,NC,North Carolina,True,,33756,289.0,37021,Buncombe,{'37021':100},Buncombe,37021,False,False,America/New_York
529,10011,49930,8357,0.16737432405367514,40.74187,-74.00052,New York,NY,New York,True,,50472,29744.0,36061,New York,{'36061':100},New York,36061,False,False,America/New_York
530,98373,24702,4129,0.1671524572909076,47.1476,-122.32518999999999,Puyallup,WA,Washington,True,,25068,913.1,53053,Pierce,{'53053':100},Pierce,53053,False,False,America/Los_Angeles
531,6518,19375,3238,0.16712258064516128,41.42763,-72.91349,Hamden,CT,Connecticut,True,,19488,468.7,9009,New Haven,{'09009':100},New Haven,09009,False,False,America/New_York
532,85085,21960,3670,0.16712204007285975,33.75295,-112.08931000000001,Phoenix,AZ,Arizona,True,,22211,264.0,4013,Maricopa,{'04013':100},Maricopa,04013,False,False,America/Phoenix
533,32311,20654,3450,0.16703786191536749,30.40038,-84.16254,Tallahassee,FL,Florida,True,,21038,151.4,12073,Leon,{'12073':100},Leon,12073,False,False,America/New_York
534,30319,41171,6875,0.1669864710597265,33.87897,-84.33619,Atlanta,GA,Georgia,True,,41839,1429.0,13089,DeKalb,"{'13089':84.21,'13121':15.79}",DeKalb|Fulton,13089|13121,False,False,America/New_York
535,50009,19188,3203,0.1669272461955389,41.644459999999995,-93.45795,Altoona,IA,Iowa,True,,19559,247.7,19153,Polk,{'19153':100},Polk,19153,False,False,America/Chicago
536,84098,19237,3210,0.16686593543691844,40.73473,-111.53431,Park City,UT,Utah,True,,19362,81.3,49043,Summit,{'49043':100},Summit,49043,False,False,America/Denver
537,57108,22113,3685,0.16664405553294442,43.47752,-96.70406,Sioux Falls,SD,South Dakota,True,,22449,216.1,46083,Lincoln,"{'46083':99.32,'46099':0.68}",Lincoln|Minnehaha,46083|46099,False,False,America/Chicago
538,78736,8996,1499,0.16662961316140507,30.2611,-97.95944,Austin,TX,Texas,True,,9047,92.5,48453,Travis,{'48453':100},Travis,48453,False,False,America/Chicago
539,74012,61431,10234,0.16659341374875877,36.05359,-95.80494,Broken Arrow,OK,Oklahoma,True,,62429,896.8,40143,Tulsa,{'40143':100},Tulsa,40143,False,False,America/Chicago
540,4086,8676,1445,0.16655140617796219,43.961529999999996,-69.95879000000001,Topsham,ME,Maine,True,,8763,105.4,23023,Sagadahoc,{'23023':100},Sagadahoc,23023,False,False,America/New_York
541,98221,21193,3528,0.16647006086915492,48.503209999999996,-122.65491999999999,Anacortes,WA,Washington,True,,21411,148.6,53057,Skagit,"{'53055':0.47,'53057':99.53}",Skagit|San Juan,53057|53055,False,False,America/Los_Angeles
542,89074,48923,8144,0.16646567054350714,36.036590000000004,-115.08086999999999,Henderson,NV,Nevada,True,,49397,2026.5,32003,Clark,{'32003':100},Clark,32003,False,False,America/Los_Angeles
543,44303,7655,1273,0.16629653821032006,41.10467,-81.53686,Akron,OH,Ohio,True,,7766,1288.0,39153,Summit,{'39153':100},Summit,39153,False,False,America/New_York
544,92620,48293,8025,0.16617315138839997,33.71257,-117.75068,Irvine,CA,California,True,,48952,2106.6,6059,Orange,{'06059':100},Orange,06059,False,False,America/Los_Angeles
545,85297,32543,5407,0.16614940232922595,33.2778,-111.7335,Gilbert,AZ,Arizona,True,,33029,987.0,4013,Maricopa,{'04013':100},Maricopa,04013,False,False,America/Phoenix
546,10021,45496,7534,0.16559697555829084,40.76939,-73.95871,New York,NY,New York,True,,46215,44214.6,36061,New York,{'36061':100},New York,36061,False,False,America/New_York
547,55113,40911,6770,0.1654811664344553,45.013000000000005,-93.15553,Saint Paul,MN,Minnesota,True,,41608,1009.1,27123,Ramsey,{'27123':100},Ramsey,27123,False,False,America/Chicago
548,55447,21443,3547,0.1654152870400597,45.0011,-93.4892,Minneapolis,MN,Minnesota,True,,21737,927.3,27053,Hennepin,{'27053':100},Hennepin,27053,False,False,America/Chicago
549,98110,23858,3945,0.16535334059854137,47.644690000000004,-122.54353,Bainbridge Island,WA,Washington,True,,24060,321.9,53035,Kitsap,{'53035':100},Kitsap,53035,False,False,America/Los_Angeles
550,75071,52243,8634,0.16526616005972092,33.24664,-96.62898,Mckinney,TX,Texas,True,,52939,176.8,48085,Collin,{'48085':100},Collin,48085,False,False,America/Chicago
551,37075,64477,10640,0.16502008468135926,36.33996,-86.60659,Hendersonville,TN,Tennessee,True,,65123,385.3,47165,Sumner,{'47165':100},Sumner,47165,False,False,America/Chicago
